,internal_id,h3_index,latitude,longitude,name,tags,categories,place_id,address,timezone,temporarily_closed,permanently_closed,inside_of,price_level,contact_phone,contact_website,number_of_reviews,rating_stars,spending_time_min,spending_time_max,has_popularity,has_opening_hours,has_waiting_time
0,0x46b54a5a7d4ed1fd:0x932ad74a3f2e7e60,8f1181a1952d630,55.4103069,37.902451299999996,Moscow Domodedovo Mikhail Lomonosov Airport,{international_airport},{airport},ChIJ_dFOfVpKtUYRYH4uP0rXKpM,{Moscow OblastRussia},Europe/Moscow,False,False,,,74959336666.0,https://www.dme.ru/,39373.0,4.2,,,True,False,True
1,0x487604e08939064d:0x59887c6e6e215e84,8f194ad1448cac9,51.4931466,-0.1375337,RE/MAX Central,{real_estate_agentsapartment_rental_agencycommercial_agentproperty_investmentproperty_management_company},{service},ChIJTQY5ieAEdkgRhF4hbm58iFk,{85 Rochester RowLondonSW1P 1LJUnited Kingdom},Europe/London,False,False,,,442076301099.0,http://www.remax.co.uk/central,111.0,4.5,,,False,True,False
2,0x48693091a4e3367d:0x4b05e135f5c25f78,8f195a413c021b2,51.674043,-4.908637000000001,Pembroke,,,ChIJfTbjpJEwaUgReF_C9TXhBUs,{UK},Europe/London,False,False,,,,,,,,,False,False,False
3,0x47c5e37e3bef4933:0xb5e624f5197f65bf,8f1968269bb56cd,52.3897001,4.849449900000001,Black Cat Theatre,{childrens_theatermusic_school},{art_cultureeducation},ChIJM0nvO37jxUcRv2V_GfUk5rU,{Schakelstraat 21014 AW AmsterdamNetherlands},Europe/Amsterdam,False,False,,,31638066480.0,http://blackcattheatre.nl/,60.0,4.9,,,True,False,True
4,0x47c0c4973b395b15:0xbc45fd9317e81195,8f1fa096b432218,50.9702469,5.6801788,GO! basisschool voor buitengewoon onderwijs Mikado,{elementary_school},{misc},ChIJFVs5O5fEwEcRlRHoF5P9Rbw,{Bosweg 713630 MaasmechelenBelgium},Europe/Brussels,False,False,,,3289760277.0,http://www.bsbomikado.be/,5.0,4.8,,,False,True,False
5,0x8816d3501297c131:0x3c9f57ffc1d42ba5,8f274b46e3b30b6,41.7058097,-86.23502009999999,Notre Dame Security Police,{police_department},{public_service},ChIJMcGXElDTFogRpSvUwf9Xnzw,{Hammes Mowbray HallNotre Dame IN 46556United States},America/Indianapolis,False,False,0x8816cd576bfc35cd:0x5a2be3cb659fd9b7,,15746315555.0,http://ndsp.nd.edu/,,,,,False,False,False
6,0x808f80b183b3d067:0x3eaabdb7467e9240,8f28308101a9af6,37.8054809,-122.2712195,Caffe Teatro,{cafedelisandwich_shop},{foodcafe},ChIJZ9Czg7GAj4ARQJJ-Rre9qj4,{300 Frank H. Ogawa Plaza #130Oakland CA 94612United States},America/Los_Angeles,False,False,,1.0,15102678970.0,http://caffeteatrooakland.com/,17.0,4.3,,,True,True,True
7,0x808581108cee81cb:0x34e1a2ad5be73318,8f28308280d1cdc,37.777195899999995,-122.4173361,110 Web Design,{software_company},{service},ChIJy4HujBCBhYARGDPnW62i4TQ,{1390 Market St Suite 200San Francisco CA 94102},America/Los_Angeles,False,False,0x8085809c0c15cadf:0xcbbbf29fd9e265a4,,18552400930.0,https://110webdesign.com/,,,,,False,True,False
8,0x8085809b49ae72d5:0xe8cfb60d1ebe7f27,8f28308287accdc,37.7795826,-122.41295530000001,A.C.T.'s Strand Theater & Cafe,{performing_arts_theater},{art_culture},ChIJ1XKuSZuAhYARJ3--Hg22z-g,{1127 Market StSan Francisco CA 94103United States},America/Los_Angeles,True,False,,,14157492228.0,http://www.act-sf.org/strand,212.0,4.6,,,False,False,False
9,0x808580c9dbbd6fcf:0x987a2bfedc89c62,8f283082909c4f4,37.7854649,-122.43931450000001,Lancellotti Paola,{doctor},{medical},ChIJz2-928mAhYARYpzI7b-ihwk,{2356 Sutter St # 6San Francisco CA 94115United States},America/Los_Angeles,False,False,,,14158857788.0,,,,,,False,False,False
10,0x808581f215b60ebb:0x235abe53a6a07df9,8f283082a22a98b,37.79213789999999,-122.4028277,315 MONTGOMERY STREET,{business_center},{office},ChIJuw62FfKBhYAR-X2gplO-WiM,{315 Montgomery StSan Francisco CA 94104},America/Los_Angeles,False,False,,,12015871000.0,https://www.vno.com/office/property/315-montgomery-street/3311896/landing,,,,,False,False,False
11,0x808580884e6635b5:0xd24ceeb04cda0dc9,8f283082a32b92b,37.789077,-122.4032362,Consulate of France,{foreign_consulate},{misc},ChIJtTVmToiAhYARyQ3aTLDuTNI,{88 Kearny St #600San Francisco CA 94108},America/Los_Angeles,False,False,0x8085808836557eb5:0xcf349ea3bd316b6b,,16502853223.0,http://consulfrance-sanfrancisco.org/,84.0,3.8,,,False,False,False
12,0x80858066a8b9520d:0x47689ad2e32a0afe,8f283082a759cec,37.7942072,-122.3947852,One Market Restaurant/Mark 'n Mike's NY Style Deli,{american_restaurantbarrestaurant},{fooddrinks},ChIJDVK5qGaAhYAR_goq49KaaEc,{1 Market StSan Francisco CA 94105United States},America/Los_Angeles,False,False,0x808580643c3e2b6b:0xdfaed86e138e4f01,3.0,14157775577.0,http://www.onemarket.com/,773.0,4.3,,,True,True,True
13,0x808f7fd5ab1c02bf:0xf614aab9f5507597,8f283082a8320e9,37.777795399999995,-122.3959876,4th St,,,ChIJvwIcq9V_j4ARl3VQ9bmqFPY,{San Francisco CA},America/Los_Angeles,False,False,,,,,,,,,False,False,False
14,0x8085808679110299:0x2607188167b0f1ef,8f283082aa2d029,37.7835369,-122.4068652,Hotel Zetta San Francisco a Viceroy Urban Retreat,{hotelevent_venue},{tourismart_culture},ChIJmQIReYaAhYAR7_GwZ4EYByY,{55 5th StSan Francisco CA 94103},America/Los_Angeles,False,False,,,14155438555.0,https://www.viceroyhotelsandresorts.com/zetta?chebs=gl-zetta,785.0,4.4,,,False,False,False
15,0x8085808929ede405:0x572b701792d36541,8f283082aac9d55,37.7882001,-122.40650559999999,Gucci,{boutiqueclothing_storeleather_goods_storemens_clothing_storewomens_clothing_store},{shopping},ChIJBeTtKYmAhYARQWXTkhdwK1c,{240 Stockton StSan Francisco CA 94108United States},America/Los_Angeles,False,False,,,14153922808.0,https://www.gucci.com/us/en/store/240-stockton-street?utm_source=yext_us&utm_medium=storemarketing&utm_campaign=retail_storepages_marcomm&utm_content=23017_bookapp&y_source=1_MTI0NDEyNi03MTUtbG9jYXRpb24uZ29vZ2xlX3dlYnNpdGVfb3ZlcnJpZGU%3D,180.0,4.2,,,True,True,True
16,0x808f7fd7c4cdb4bb:0x5848b6659c59c9de,8f283082ad49099,37.7799247,-122.39198229999998,148 PRINT,{print_shop},{shopping},ChIJu7TNxNd_j4AR3slZnGW2SFg,{148 Townsend StSan Francisco CA 94107},America/Los_Angeles,False,False,,,14157304634.0,http://148print.com/,4.0,5.0,,,False,True,False
17,0x808581737ddbce35:0xaca3debf3becf9e4,8f283082b6ddd71,37.8079848,-122.41671629999999,Neyborly,{event_venue},{art_culture},ChIJNc7bfXOBhYAR5PnsO7_eo6w,{269 Jefferson StSan Francisco CA 94133},America/Los_Angeles,False,False,,,15107066510.0,http://www.neyborly.com/,,,,,False,True,False
18,0x80858500ed50deb3:0x9e6de65d14afcc75,8f2830842c69ca1,37.8634613,-122.49568959999999,US Army Corps of Engineers Bay Model Visitor Center,{visitor_centerfederal_government_officetourist_attraction},{administrationtourism},ChIJs95Q7QCFhYARdcyvFF3mbZ4,{2100 BridgewaySausalito CA 94965},America/Los_Angeles,False,False,,,14152893007.0,https://www.spn.usace.army.mil/Missions/Recreation/Bay-Model-Visitor-Center/,84.0,4.8,20.0,90.0,True,True,True
19,0x80857e9d8d0503f7:0x737666a7b46dddb1,8f28308a9c81686,37.8703042,-122.2660841,Cinnaholic,{bakerydessert_shop},{cafe},ChIJ9wMFjZ1-hYARsd1ttKdmdnM,{2132 Oxford StBerkeley CA 94704United States},America/Los_Angeles,False,False,0x80857ffd4777500b:0x665875191012ef64,2.0,15106478684.0,https://www.cinnaholicberkeley.com/,448.0,4.5,15.0,15.0,True,True,True
20,0x808f9e875b6b5515:0x77313dd482614a13,8f283093583665b,37.5708848,-122.3101534,Glamour hair and nails,{hair_salonbeauty_salonnail_salon},{beauty},ChIJFVVrW4eej4ARE0phgtQ9MXc,{560 S Norfolk StSan Mateo CA 94401United States},America/Los_Angeles,False,False,0x808f9e875162a5bf:0x229c2b4ee5fdce83,,16503435575.0,,25.0,3.2,,,False,True,False
21,0x808561c18242f01b:0x5733ef6fa6df1bc3,8f2830c658d3b75,37.897144299999994,-122.0582731,Topshop,{womens_clothing_store},{shopping},ChIJG_BCgsFhhYARwxvfpm_vM1c,{Nordstrom 4211200Broadway PlazaWalnut Creek CA 94596United States},America/Los_Angeles,False,False,0x808561c186ad7ea7:0x53ebf89f4210d023,,,https://us.topshop.com/store-locator?country=United+States,,,,,False,True,False
22,0x808fcb67fe995555:0xf96183e928caa7bc,8f2834714b2456d,37.3326271,-121.9129316,SDC Energy,{consultant},{service},ChIJVVWZ_mfLj4ARvKfKKOmDYfk,{1346 The AlamedaSan Jose CA 95126United States},America/Los_Angeles,False,False,0x808fcb67911896bd:0x6895b132b8c4fc2a,,14087234797.0,https://www.sdc-energy.com/contact/,,,,,False,False,False
23,0x548f738bddb06171:0x38e8f3741ebb48ed,8f28d1aaca8b359,48.428420700000004,-123.36564440000001,Victoria,,,ChIJcWGw3Ytzj1QR7Ui7HnTz6Dg,{British ColumbiaCanada},America/Vancouver,False,False,,,,http://www.victoria.ca/,,,,,False,False,False
24,0x80dd4ae5d53cf7db:0xc37525eaf8510bc8,8f29a560bb88c63,33.8414802,-118.32112120000001,Strand Brewing Co,{brewery},{drinks},ChIJ2_c81eVK3YARyAtR-OoldcM,{2201 Dominguez StTorrance CA 90501United States},America/Los_Angeles,False,False,,,13105170900.0,http://www.strandbrewing.com/,187.0,4.7,,,True,True,True
25,0x89e3774849653997:0x901bed94ded57df2,8f2a30675270753,42.3781475,-71.10649029999999,The Kebab Factory - An Indian Bistro,{indian_restaurantbuffet_restaurantfine_dining_restaurantindian_takeawaymiddle_eastern_restaurantpakistani_restaurantpunjabi_restaurant},{food},ChIJlzllSUh344kR8n3V3pTtG5A,{414 Washington StSomerville MA 02143United States},America/New_York,False,False,,2.0,16173544996.0,https://www.thekebabfactory.net/,295.0,4.0,15.0,90.0,True,True,True
26,0x88388a870b71620b:0xe94a08098b3ebeca,8f2a95633d15461,40.0526485,-82.91514670000001,L'OCCITANE EN PROVENCE,{cosmetics_storebeauty_supply_storegift_shop},{shoppingbeauty},ChIJC2JxC4eKOIgRyr4-iwkISuk,{4093 The Strand EColumbus OH 43219United States},America/New_York,False,False,0x88388a8785dedb1b:0x6e75eea84e4fb090,,16144162082.0,https://www.loccitane.com/on/demandware.store/Sites-OCC_US-Site/en_US/Stores-ShowStore?id=04OCST089&y_source=1_MTM3MjIxMzUtNzE1LWxvY2F0aW9uLndlYnNpdGU%3D,26.0,4.7,,,False,True,False
27,0x130e4c37de54f917:0xebd3bfa3a1171244,8f3f304002087a1,35.966132,14.356107999999999,Seashell Dive Centre,{diving_centerscuba_instructor},{sportservice},ChIJF_lU3jdMDhMRRBIXoaO_0-s,{Triq Il-MarfaMelliehaMalta},Europe/Malta,False,False,,,35621521062.0,http://www.seashelldivingmalta.com/,79.0,4.8,20.0,180.0,True,True,True
28,0x130e4c37e0d16561:0xfee8232fd293ec6b,8f3f30400208b8d,35.966407200000006,14.356253899999999,Tunnynet Slipway,{boat_ramp},{misc},ChIJYWXR4DdMDhMRa-yT0i8j6P4,{X984+HG6MelliehaMalta},Europe/Malta,False,False,,,,,1.0,3.0,,,False,False,False
29,0x130e4c4426621fad:0x4969909a5bace8ed,8f3f30400a86334,35.972263,14.349784,Munchies Mellieha Bay,{mediterranean_restaurantbarice_cream_shoplidoloungepizza_delivery_servicepizza_restaurantseafood_restaurant},{drinksfoodcaferecreation},ChIJrR9iJkRMDhMR7eisW5qQaUk,{Triq il-Marfa GhadiraIl-MellieħaMalta},Europe/Malta,False,False,,2.0,35621576416.0,https://www.munchiesmelliehabay.com/,2126.0,4.4,,,True,True,True
30,0x130e4c3389cba067:0x63e7163d69611b60,8f3f30401490555,35.9602308,14.3618795,Our Lady Of The Grotto,{shrinetourist_attraction},{tourism},ChIJZ6DLiTNMDhMRYBthaT0W52M,{Triq Il-MarfaMelliehaMalta},Europe/Malta,False,False,,,,,28.0,4.5,,,True,True,True
31,0x130e4c2f67dbf1d9:0x71f12a3da422fd0,8f3f304017309a8,35.965067,14.3718008,19 Triq J.Kepler,,,ChIJ2fHbZy9MDhMR0C9C2qMSHwc,{Il-MellieħaMalta},Europe/Malta,False,False,,,,,,,,,False,False,False
32,0x130e4ff51ccf8015:0x3795c815687af4ee,8f3f3040325b2d6,35.9453466,14.375036800000002,Kappella ta' Sant'Anna,{chapel},{religious_building},ChIJFYDPHPVPDhMR7vR6aBXIlTc,{W9WG+42MSt Paul's BayMalta},Europe/Malta,False,False,,,,,2.0,4.5,,,False,False,False
33,0x130e4c335c93e933:0xaad87a3935f057ae,8f3f3040384a55b,35.95731370000001,14.362326699999999,Bank of Valletta p.l.c. - Mellieha Branch,{bank},{service},ChIJM-mTXDNMDhMRrlfwNTl62Ko,{MLH 102534 Triq Gorg Borg OlivierMelliehaMalta},Europe/Malta,False,False,,,35621312020.0,http://www.bov.com/,11.0,1.8,10.0,45.0,True,True,True
34,0x130e4c34eabc0e6f:0x6f763b4de61e52e1,8f3f30403855d61,35.9578748,14.360188699999998,Dar il-Madonna tal-Mellieha,{assisted_living_facility},{apartment},ChIJbw686jRMDhMR4VIe5k07dm8,{Triq il-Qalb ImqaddsaMelliehaMalta},Europe/Malta,False,False,,,35621524444.0,http://www.caremalta.com/CareMalta/OurHomes/PPP/DarilMadonnatalMellieha/tabid/809/Default.aspx,6.0,5.0,,,False,False,False
35,0x130e4c34a9a3e5ff:0xc3855658c36b5d8a,8f3f304038586a4,35.95675670000001,14.3615655,Post Office,{post_office},{service},ChIJ_-WjqTRMDhMRil1rw1hWhcM,{Triq Il-Mitħna l-ĠdidaMelliehaMalta},Europe/Malta,False,False,,,35621224421.0,http://www.maltapost.com/,7.0,2.1,15.0,15.0,True,True,True
36,0x130e4c34a8a5f917:0xc11336802c51b826,8f3f30403858cc9,35.956952,14.361445000000002,Start Technology,{store},{shopping},ChIJF_mlqDRMDhMRJrhRLIA2E8E,{108 Triq Il-Mitħna l-ĠdidaMellieha MLH 1106Malta},Europe/Malta,False,False,,,35627888765.0,https://m.facebook.com/startmalta/,34.0,4.7,,,False,True,False
37,0x130e4c34a15bc647:0x93622a7e50f5fb5d,8f3f3040385c083,35.9572979,14.3612298,Mellieħa Local Council,{local_government_office},{office},ChIJR8ZboTRMDhMRXfv1UH4qYpM,{Triq il-Madonna ta' FatimaMelliehaMalta},Europe/Malta,False,False,,,35621521333.0,http://www.mellieha.gov.mt/,3.0,4.3,,,False,True,False
38,0x130e4c3411d54475:0xb2e34284c2090fb4,8f3f30403948258,35.960586600000006,14.360826000000001,Parish Church of Mellieha,{catholic_churchtourist_attraction},{tourismreligious_building},ChIJdUTVETRMDhMRtA8JwoRC47I,{Misraħ il-ParroċċaMelliehaMalta},Europe/Malta,False,False,,,35621523449.0,,918.0,4.6,,,False,False,False
39,0x130e4c341df9485d:0xbad01379001d66a0,8f3f3040396bb65,35.961708,14.3606865,Sea View Cafe/Bar,{cafebarcafeteriacocktail_bar},{foodcafedrinks},ChIJXUj5HTRMDhMRoGYdAHkT0Lo,{Triq Salvinu VellaMelliehaMalta},Europe/Malta,False,False,,2.0,35627042230.0,https://seaviewcafemellieha.business.site/,1766.0,4.5,30.0,90.0,True,True,True
40,0x130e4dd2ad1e1b57:0xad36227f0ebeea13,8f3f30403a017b3,35.955394,14.3681,Cross Keys,{restaurantmaltese_restaurantpizza_restaurant},{food},ChIJVxserdJNDhMRE-q-Dn8iNq0,{5 Cross SquareMelliehaMalta},Europe/Malta,False,False,,2.0,35621523744.0,http://www.crosskeysmalta.com/,494.0,4.3,,,False,True,False
41,0x130e4c2d331ba895:0xd0c669819d0dffcc,8f3f30403a09916,35.9554359,14.3695217,Mellieha Judo,{sports_complex},{sport},ChIJlagbMy1MDhMRzP8NnYFpxtA,{X949+5RCMelliehaMalta},Europe/Malta,False,False,,,,,7.0,4.9,,,False,False,False
42,0x130e4c2d33591391:0xd110befcd19f5801,8f3f30403a0d654,35.9554425,14.369445800000001,Tomorrow's Home Ltd.,{home_goods_store},{wholesaler},ChIJkRNZMy1MDhMRAVif0fy-ENE,{222 Triq Il-KbiraMelliehaMalta},Europe/Malta,False,False,,,35621520096.0,,18.0,4.7,,,False,True,False
43,0x130e4dd2b3523d5d:0x98eed2ed38dcb1ec,8f3f30403a5189b,35.954952399999996,14.3710693,Welbee's Supermarket,{supermarketbutcher_shopgourmet_grocery_storeham_shophome_goods_storeorganic_food_storeproduce_market},{wholesalergroceries},ChIJXT1Ss9JNDhMR7LHcOO3S7pg,{Triq Il-KbiraMellieha MLH 2317Malta},Europe/Malta,False,False,,,35621523192.0,https://welbees.mt/,556.0,4.2,15.0,45.0,True,True,True
44,0x130e4dd333ef6553:0xb516013f36bca752,8f3f30403a5356d,35.954411799999995,14.370775400000001,Green Valley Supermarket,{supermarket},{groceries},ChIJU2XvM9NNDhMRUqe8Nj8BFrU,{Triq Il-FortizzaMelliehaMalta},Europe/Malta,False,False,,,35621520080.0,,141.0,4.6,15.0,15.0,True,True,True
45,0x130e4c2cd3aef931:0x6bf0542bf7496a83,8f3f30403a55a74,35.955416299999996,14.3710416,Petrol Station,{gas_station},{automobile},ChIJMfmu0yxMDhMRg2pJ9ytU8Gs,{268 Triq Il-KbiraMelliehaMalta},Europe/Malta,False,False,,,35621573918.0,,73.0,3.9,,,False,True,False
46,0x130e4c2d5568f0cb:0xbc4915987722f720,8f3f30403a724de,35.955444799999995,14.369810500000002,Miracle Foods Mellieha,{frozen_food_storefood_products_supplier},{wholesalergroceries},ChIJy_BoVS1MDhMRIPcid5gVSbw,{Triq Il-KbiraMelliehaMalta},Europe/Malta,False,False,,,35625582410.0,http://www.miraclefoods.com.mt/,26.0,4.7,15.0,15.0,True,True,True
47,0x130e4d615ec07bb5:0x28442b0a5d68417f,8f3f30403ba0500,35.9565392,14.3628625,Bouquet Garni,{restaurant},{food},ChIJtXvAXmFNDhMRf0FoXQorRCg,{Triq Gorg Borg OlivierMelliehaMalta},Europe/Malta,False,False,,,35699425211.0,,,,,,False,False,False
48,0x130e4c334c62e6dd:0xff8b437d53ba1d70,8f3f30403ba28e2,35.9563193,14.3627733,Schere Complex,{beauty_salonbarber_shopcafeteriahair_salonnail_salonspa},{beautyfood},ChIJ3eZiTDNMDhMRcB26U31Di_8,{Triq Sant' AnnaMelliehaMalta},Europe/Malta,False,False,,,35621522904.0,https://scherecomplex.com/,166.0,4.6,,,True,True,True
49,0x130e4d05cfd7b10f:0x23723d70357b62c5,8f3f30403bac0e6,35.9566287,14.3642794,Citadel Insurance plc,{insurance_company},{service},ChIJD7HXzwVNDhMRxWJ7NXA9ciM,{Triq Tas-SalibMelliehaMalta},Europe/Malta,False,False,,,35621525232.0,https://www.citadelplc.com/,1.0,5.0,,,False,True,False
50,0x130e4c32e1a30159:0xebd0a55dfb4557b0,8f3f30403c2aad2,35.9523529,14.3500975,Mellieha,,,ChIJWQGj4TJMDhMRsFdF-12l0Os,{Malta},Europe/Malta,False,False,,,,,,,,,False,False,False
51,0x130e4c89f42d38fb:0xae0fae075a74fbfe,8f3f304040e3a5e,35.986924,14.3311782,Paradise Diving Malta,{dive_shopscuba_instructor},{shoppingservice},ChIJ-zgt9IlMDhMR_vt0WgeuD64,{Paradise Bay Resort HotelParadise Diving Islands Edge LidoIl-MellieħaMalta},Europe/Malta,False,False,0x130e4c8909044e89:0x7a1a918b1ac728cb,,35677776665.0,http://www.paradisediving.com/,95.0,4.5,,,True,True,True
52,0x130e4c641c37e851:0x521a52c83ed0528e,8f3f3040421c12b,35.98557720000001,14.339279699999999,MUSEUM Dar Betsajda,{place_of_worship},{misc},ChIJUeg3HGRMDhMRjlLQPshSGlI,{Triq Il-MarfaIl-MellieħaMalta},Europe/Malta,False,False,,,,,,,,,False,False,False
53,0x130e4c0dbd4161b9:0x4d149349a901fc3b,8f3f3040500d619,35.9899119,14.3596271,Tortuga Beach,{lidowater_sports_equipment_rental_service},{recreation},ChIJuWFBvQ1MDhMRO_wBqUmTFE0,{MelliehaMalta},Europe/Malta,False,False,,,35621522220.0,http://tortuga.mt/,322.0,4.3,,,True,True,True
54,0x130e4ef8e29d4951:0x61ebafaf4c3ef425,8f3f304080019b2,35.9520277,14.417949400000001,Ristorante Pizzeria La Sorpresa,{pizza_restaurantrestaurant},{food},ChIJUUmd4vhODhMRJfQ-TK-v62E,{Tourist StSt Paul's BayMalta},Europe/Malta,False,False,,2.0,35621577301.0,http://www.lasorpresarestaurant.com/,378.0,4.5,90.0,150.0,True,True,True
55,0x130e4ef86062c03f:0xb4432304c32e2ad3,8f3f30408011556,35.9508941,14.4168116,Munchies Snack Bar,{bar},{drinks},ChIJP8BiYPhODhMR0youwwQjQ7Q,{Tourist StreetSt Paul's BayMalta},Europe/Malta,False,False,,1.0,35627571246.0,,204.0,4.5,,,True,True,True
56,0x130e4ef9229d4033:0x4604cde135a4c898,8f3f3040802ab01,35.9524697,14.4185225,The George,{pubcafefine_dining_restaurant},{foodcafedrinks},ChIJM0CdIvlODhMRmMikNeHNBEY,{Triq It-TuristiQawra San Pawl IL-Bahar SPB 1025Malta},Europe/Malta,False,False,,,35621582337.0,,20.0,4.7,,,False,True,False
57,0x130e4ef939ddb53d:0x1e3fc59880ade56e,8f3f3040802d2e1,35.9530543,14.4192114,Welbee's Supermarket,{supermarketsushi_restaurant},{foodgroceries},ChIJPbXdOflODhMRbuWtgJjFPx4,{Triq Il-MerluzzSt. Paul's Bay SPB 1453Malta},Europe/Malta,False,False,,,35621581772.0,https://welbees.mt/,1308.0,4.2,20.0,20.0,True,True,True
58,0x130e4eff6d36c7f1:0xcae82007b0e874b2,8f3f3040805a2d3,35.9502144,14.421978699999999,Hotel Soreda,{hotel},{tourism},ChIJ8cc2bf9ODhMRsnTosAcg6Mo,{Il 22 Triq Andrew Cunningham Saint Paul's Bay1744Malta},Europe/Malta,False,False,,,35621576267.0,http://www.soredahotelmalta.com/,1492.0,3.9,,,False,False,False
59,0x130e4efeacf38dfd:0xf75291cdd87456dc,8f3f3040815cb5c,35.95416470000001,14.4197187,Qawra,,,ChIJ_Y3zrP5ODhMR3FZ02M2RUvc,{St Paul's BayMalta},Europe/Malta,False,False,,,,,,,,,False,False,False
60,0x130e4ef953694989:0x28a62d013df9e16f,8f3f3040815d32e,35.9540451,14.420278099999999,Park Lane Boutique Aparthotel,{hotelapartment_complex},{tourismapartment},ChIJiUlpU_lODhMRb-H5PQEtpig,{Maskli Street Qawra St Paul's Bay MT SPB1480San Pawl il-BaħarMalta},Europe/Malta,False,False,,,35621577319.0,http://www.parklanemalta.com/,209.0,4.7,,,False,False,False
61,0x130e4ef78da97e95:0xb5b765554150b916,8f3f304081839a4,35.951465,14.413542000000001,Choco Kebab Cafe / Vegan bar,{coffee_shop},{cafe},ChIJlX6pjfdODhMRFrlQQVVlt7U,{San Anthony street 228 BugibbaSPB 2659Malta},Europe/Malta,True,False,,1.0,35679455214.0,https://www.facebook.com/CHOCO-KEBAB-MALTA-608611245999877/,161.0,4.6,,,False,False,False
62,0x130e4ef81a2c1967:0xea4a65879009c93f,8f3f3040818a76e,35.950784999999996,14.4146968,The Donut Factory,{coffee_shopdonut_shopsalad_shop},{foodcafegroceries},ChIJZxksGvhODhMRP8kJkIdlSuo,{85 Triq il-HalelBugibba SPB 2529Malta},Europe/Malta,False,False,,,35627884001.0,http://www.thedonutfactory.com/,221.0,4.3,25.0,60.0,True,True,True
63,0x130e4ef7c2bf4e6d:0xb9b07b521633437e,8f3f30408191c84,35.9508033,14.412568499999999,Whyte Harte Bar,{bar},{drinks},ChIJbU6_wvdODhMRfkMzFlJ7sLk,{GandoffliSt Paul's BayMalta},Europe/Malta,False,False,,1.0,35699885087.0,,172.0,4.5,,,True,True,True
64,0x130e4ef7fe8ea9e7:0x9aaab4c79172716c,8f3f3040819b113,35.9500548,14.4139785,Compass Car Hire,{car_rental_agencycar_leasing_servicetaxi_service},{automobileservice},ChIJ56mO_vdODhMRbHFykce0qpo,{Triq Il QrollBugibba SPB 2550Malta},Europe/Malta,False,False,,,35621571316.0,http://compasscarhire.com/,168.0,4.7,,,True,True,True
65,0x130e4ef7b4ec9d25:0x848879590343bcb7,8f3f304081b0483,35.9518203,14.4116888,Trattoria 'a Lanternaspecialità Liguricucina casalinga.,{restaurant},{food},ChIJJZ3stPdODhMRt7xDA1l5iIQ,{160 triqSan XmunSan Pawl il-Baħar SPB 0001Malta},Europe/Malta,False,False,,,35679215474.0,https://www.facebook.com/Trattoria-a-Lanterna-216088982216659/,277.0,4.7,60.0,120.0,False,True,False
66,0x130e4efe39e7ec9f:0x3f5062b49039a1ca,8f3f30408312142,35.950922600000006,14.4244155,Zigumar Restaurant,{restaurant},{food},ChIJn-znOf5ODhMRyqE5kLRiUD8,{Triq Il-LuzzuSt Paul's BayMalta},Europe/Malta,False,False,,,35699064380.0,https://www.facebook.com/pg/zigumarrestaurant,359.0,4.6,,,True,True,True
67,0x130e4fef60fac185:0xa5513672e8caed8,8f3f3040842b592,35.9460013,14.4106641,Nutrition House,{health_food_store},{groceries},ChIJhcH6YO9PDhMR2K6MLmcTVQo,{Triq il-LampukiSt Paul's BayMalta},Europe/Malta,False,False,,,35679324905.0,https://www.facebook.com/Nutrition-House-Malta-196871143687913/,4.0,4.8,,,False,False,False
68,0x130e4f6ee5a6f2df:0x4889a30dd6ee8c0c,8f3f3040850378d,35.9479145,14.407605300000002,The Charity Shop in aid of Hospice Malta,{charity},{misc},ChIJ3_Km5W5PDhMRDIzu1g2jiUg,{Triq Il-Villeggjatura San Pawl il-BaħarSPB 3201Malta},Europe/Malta,False,False,,,,https://the-charity-shop-in-aid-of-hospice-malta.business.site/?utm_source=gmb&utm_medium=referral,,,,,False,True,False
69,0x130e4e5ee87159a1:0x98cd88e5932acb36,8f3f304085116a6,35.94743,14.406721,Gandhi Tandoori,{indian_restaurant},{food},ChIJoVlx6F5ODhMRNssqk-WIzZg,{Mosta RoadSt Paul's BayMalta},Europe/Malta,False,False,,2.0,35621572260.0,http://gandhi-tandoori.com/,634.0,4.4,60.0,120.0,True,True,True
70,0x130e4e592cef22ad:0x1a5bafef8f46c4f9,8f3f30408519b54,35.947464000000004,14.40841,Alpha School of English,{english_language_schooladult_education_schoolstudent_housing_center},{education},ChIJrSLvLFlODhMR-cRGj--vWxo,{Triq l-ArznellSt Paul's BayMalta},Europe/Malta,False,False,,,35621581474.0,http://www.alphaschoolmalta.com/,42.0,4.6,,,False,True,False
71,0x130e4e5ec9c89439:0xe48ebc5a03239d52,8f3f3040851b0b1,35.946806,14.407898000000001,The Donut Factory,{coffee_shopbakerydessert_restaurantdonut_shopsalad_shop},{foodcafegroceries},ChIJOZTIyV5ODhMRUp0jA1q8juQ,{Mosta Rd San Pawl il-BaħarSPB 3111Malta},Europe/Malta,False,False,,2.0,35627884444.0,http://www.thedonutfactory.com/,384.0,4.4,15.0,45.0,True,True,True
72,0x130e4e5edce6663f:0x4dc54329c9358440,8f3f3040851c593,35.9475132,14.4070542,Fins & Gills Fish And Chips,{fast_food_restaurant},{food},ChIJP2bm3F5ODhMRQIQ1ySlDxU0,{Triq Toni BajadaSt Paul's BayMalta},Europe/Malta,False,False,,,35627139297.0,https://www.facebook.com/finsandgillsfishandchips/,494.0,4.7,20.0,20.0,True,True,True
73,0x130e4e585638c67f:0xff9b0a39dab8684e,8f3f304085426c8,35.948004,14.411285000000001,EuroSaver,{supermarketbakeryconvenience_storedairy_storefruit_and_vegetable_storegrocery_storetobacco_shopwine_store},{shoppingcafegroceries},ChIJf8Y4VlhODhMRTmi42jkKm_8,{Triq Censu TantiSan Pawl il-Baħar SPB 3020Malta},Europe/Malta,False,False,,,35677259593.0,https://eurosaver.business.site/,78.0,3.4,15.0,15.0,True,True,True
74,0x130e4e58215fee53:0xbaaa2dc97cbf5e9b,8f3f30408549b6b,35.9485395,14.413755300000002,The Brothers,{bulgarian_restaurantrestaurant},{food},ChIJU-5fIVhODhMRm16_fMktqro,{Triq Il-Korp Tal-PijunieriSt Paul's BayMalta},Europe/Malta,False,False,,2.0,35699058829.0,,506.0,4.6,60.0,150.0,True,True,True
75,0x130e4e5852d850f7:0x966200d4f6e7c3cd,8f3f304085588f3,35.947556,14.411755800000002,Oriana Hotel,{hotel},{tourism},ChIJ91DYUlhODhMRzcPn9tQAYpY,{Triq C.TantiSt Paul's BayMalta},Europe/Malta,False,False,,,35621576128.0,http://www.orianahotel.com/,289.0,3.9,,,False,False,False
76,0x130e4f91fe6e6c0f:0x1dfcb48c25acb71c,8f3f304085ab9a8,35.9461749,14.406696100000001,B. Grima & Sons Ltd.,{line_marking_serviceequipment_supplierroad_safety_townsign_shop},{shoppingwholesalerservice},ChIJD2xu_pFPDhMRHLesJYy0_B0,{Jean De La Cassiere Street St. Paul'sBay SPB 3138Malta},Europe/Malta,False,False,,,35679477682.0,http://bgs.com.mt/,1.0,5.0,,,False,True,False
77,0x130e4efd1fe908d5:0x8db8cd849c4a7d71,8f3f30408ba90cd,35.958663,14.42325,Malta National Aquarium,{aquariumtourist_attraction},{tourismrecreation},ChIJ1QjpH_1ODhMRcX1KnITNuI0,{Triq it-TruncieraSan Pawl il-Baħar SPB 1500Malta},Europe/Malta,False,False,,,35622588100.0,http://www.aquarium.com.mt/,12314.0,4.2,60.0,120.0,True,True,True
78,0x130e4ef66c1e1e2d:0x292ec7ea0869aff2,8f3f30408cc4b8e,35.952007200000004,14.4090261,Hornblower Cruises,{boat_tour_agencysightseeing_tour_agencytour_agency},{service},ChIJLR4ebPZODhMR8q9pCOrHLik,{Dawret Il-GzejjerSt Paul's Bay SPB 1480Malta},Europe/Malta,False,False,,,35679899899.0,http://www.hornblowermalta.com/,1610.0,4.5,15.0,45.0,True,True,True
79,0x130e4e379a1a150f:0x45de3e4014094915,8f3f3040a2f5cc4,35.9263925,14.415162699999998,Sherries Estates,{garden_center},{wholesaler},ChIJDxUamjdODhMRFUkJFEA-3kU,{Triq BurmarradSt Paul's BayMalta},Europe/Malta,False,False,,,35621580021.0,http://www.sherriesestates.com/,931.0,4.4,30.0,30.0,True,True,True
80,0x130e4e698d84e505:0x600c991898dd0537,8f3f3040ad48cf4,35.936017,14.3966503,St Paul's Bay,,,ChIJBeWEjWlODhMRNwXdmBiZDGA,{Malta},Europe/Malta,False,False,,,,,,,,,False,False,False
81,0x130e4fe91620695b:0x28313bd97cad1ff3,8f3f3040b014a02,35.9317518,14.431574599999998,Naxxar,,,ChIJW2kgFulPDhMR8x-tfNk7MSg,{Malta},Europe/Malta,False,False,,,,,,,,,False,False,False
82,0x130e4fb67695ce27:0x9944157299f1c30d,8f3f3040b09982c,35.928118,14.431838,Good Earth Distributors Ltd,{natural_foods_store},{groceries},ChIJJ86VdrZPDhMRDcPxmXIVRJk,{Burmarrad Road Hardrocks Business Park In-NaxxarNXR 6345Malta},Europe/Malta,False,False,,,35621431309.0,http://goodearth.com.mt/,19.0,4.7,15.0,15.0,True,True,True
83,0x130e4fcccd33c337:0x2da7a02d05f41421,8f3f3040e02304c,35.9514542,14.3886,ABC Diving,{diving_centerdive_shopscuba_instructorscuba_tour_agency},{shoppingsportservice},ChIJN8MzzcxPDhMRIRT0BS2gpy0,{The BoathouseTriq il-FekrunaSaint Paul's Bay SPB 4813Malta},Europe/Malta,False,False,,,35677333112.0,https://www.abcdivingmalta.com/,35.0,5.0,,,False,True,False
84,0x130e4e60f9a5cd75:0x3f650ca7e6bb7392,8f3f3040e22aae2,35.9486842,14.4000723,Dinky Fingers,{art_cafecraft_store},{shoppingcafe},ChIJdc2l-WBODhMRknO75qcMZT8,{The Arches 493 Triq San Pawl St Pauls BaySPB 3416Malta},Europe/Malta,False,False,,,,http://www.dinky-fingers.com/,43.0,4.7,,,False,True,False
85,0x130e4e637f22365d:0x750d31877696ad1e,8f3f3040e39091d,35.9473136,14.3936326,St. Paul's Bay Local Council,{council},{administration},ChIJXTYif2NODhMRHq2WdocxDXU,{St Paul's BayMalta},Europe/Malta,False,False,,,35621585888.0,https://localgovernment.gov.mt/en/lc/StPaulsBay/Pages/default.aspx,21.0,2.6,,,False,True,False
86,0x130e4e793c84eb67:0x843e703f8079ecd,8f3f3040e5417a6,35.9473248,14.3829717,Munchy Monkey,{restaurant},{food},ChIJZ-uEPHlODhMRzZ4H-APnQwg,{Telgħet ix-XemxijaSt Paul's BayMalta},Europe/Malta,False,True,,,35627017879.0,https://www.facebook.com/MunchyMonkey/,42.0,4.4,,,False,True,False
87,0x130e4e793a048f0d:0x3f086236829824b4,8f3f3040e541ae2,35.9475657,14.383226500000001,Porto del Sol,{guest_housemediterranean_restaurantrestaurant},{food},ChIJDY8EOnlODhMRtCSYgjZiCD8,{13 Telgħet ix-XemxijaSt Paul's BayMalta},Europe/Malta,False,False,,,35699429913.0,,157.0,4.2,,,False,False,False
88,0x130e4e7911c37b85:0x9b4f3e7abd79f289,8f3f3040e558b0c,35.9464083,14.3829288,Xemxija Pit Stop,{cafe},{cafe},ChIJhXvDEXlODhMRifJ5vXo-T5s,{Xatt Il-PwalesSt Paul's BayMalta},Europe/Malta,False,False,,1.0,35627563027.0,https://m.facebook.com/XemxijaPitstop,557.0,4.5,15.0,45.0,True,True,True
89,0x130e4f0fdbf6ff9f:0xae1cd25ba3ed237,8f3f3040e569a86,35.948420500000005,14.3842823,Wines & Co,{wine_store},{shopping},ChIJn__22w9PDhMRN9I-uiXN4Qo,{39 Xemxija Hill XemxijaSPB 9026Malta},Europe/Malta,False,False,,,35699422035.0,http://winesandco.net/,16.0,4.6,,,False,True,False
90,0x130e4e8027c3be77:0x389b028693a0d25a,8f3f3040ed44a0a,35.9565903,14.379867,Selmun Bar & Restaurant,{restaurant},{food},ChIJd77DJ4BODhMRWtKgk4YCmzg,{36 SelmunMelliehaMalta},Europe/Malta,False,False,,,35699446225.0,,146.0,4.3,15.0,150.0,True,True,True
91,0x130e4df09b8768e9:0x876ddf2a693d7e8d,8f3f304189596ae,35.918932700000006,14.3617343,Mgarr,,,ChIJ6WiHm_BNDhMRjX49aSrfbYc,{Malta},Europe/Malta,False,False,,,,,,,,,False,False,False
92,0x130e4dec349f735b:0x57e2cc8b0a0afcc6,8f3f30418b25064,35.919419500000004,14.3671027,Ta' Celita - Sunny Bar and Restaurant,{restaurant},{food},ChIJW3OfNOxNDhMRxvwKCovM4lc,{1 Triq Sir Harry Luke L-ImġarrMGR 1502Malta},Europe/Malta,False,False,,,35621573705.0,https://www.tacelita.com/,151.0,4.8,,,False,True,False
93,0x130e4d970a124fcb:0x63401bdd462dcc1e,8f3f3041c8c14a5,35.93414,14.346036199999999,Apple's Eye Restaurant,{restaurant},{food},ChIJy08SCpdNDhMRHswtRt0bQGM,{IlTriq In-NahhalijaMellieha MLH 5510Malta},Europe/Malta,False,False,,2.0,35621573359.0,http://www.appleseyemalta.com/,1403.0,4.0,45.0,120.0,True,True,True
94,0x130e4b1011b2d685:0x7811ff0ace37d15b,8f3f30420d6b64a,36.035175,14.320098999999999,Blue waters dive cove diving centre,{dive_shop},{shopping},ChIJhdayERBLDhMRW9E3zgr_EXg,{Triq Il-kuncizzjoniQala Gozo QLA 1709Malta},Europe/Malta,False,False,,,35621565626.0,http://www.divebluewaters.com/,171.0,5.0,15.0,90.0,True,True,True
95,0x130e4b18fe24593f:0xfd74b0983cf26ae2,8f3f30424616d09,36.039707,14.312129999999998,Il-Wileġ Restaurant,{maltese_restaurant},{food},ChIJP1kk_hhLDhMR4mryPJiwdP0,{33 Triq Il-WilegQala Gozo QLA 1930Malta},Europe/Malta,False,True,,,35699885482.0,,38.0,4.5,,,False,True,False
96,0x130e4b19dd343357:0x2439a8ffd7beda81,8f3f3042465a4ae,36.0388628,14.318101,Qala,,,ChIJVzM03RlLDhMRgdq-1_-oOSQ,{Malta},Europe/Malta,False,False,,,,,,,,,False,False,False
97,0x130e4b179cfaf81f:0x5750b4318868896a,8f3f3042469a822,36.0360517,14.312142300000001,Ur Choice Supermarket,{grocery_store},{groceries},ChIJH_j6nBdLDhMRaoloiDG0UFc,{Il FornQalaMalta},Europe/Malta,False,False,,,35699460763.0,https://www.facebook.com/urchoicesupermarket/,71.0,4.4,15.0,15.0,True,True,True
98,0x130e4b18f932a4db:0x8ebd34401f8eaa4a,8f3f304247894cd,36.039823999999996,14.3119408,Il-Wileġ Bed & Breakfast,{bed_and_breakfast},{tourism},ChIJ26Qy-RhLDhMRSqqOH0A0vY4,{54 Triq Il-MithnaGozo QLA 1914Malta},Europe/Malta,False,False,,,35699885482.0,,68.0,4.7,,,False,False,False
99,0x130e4b2273600755:0x143b183c0c82644c,8f3f304247a2da5,36.041215,14.309010999999998,The Qala Repose,{bed_and_breakfast},{tourism},ChIJVQdgcyJLDhMRTGSCDDwYOxQ,{Triq Ta CiniQala VCT 1831Malta},Europe/Malta,False,False,,,35699971703.0,,6.0,4.7,,,False,False,False
100,0x130e4b4896a4ee8d:0x5c8f87ddf11811e0,8f3f3042609d023,36.024420299999996,14.2966905,Gleneagles Bar,{bar},{drinks},ChIJje6klkhLDhMR4BEY8d2Hj1w,{10 Triq Il-Vittorja Gozo GSM 2400Malta},Europe/Malta,False,False,,,35621556543.0,,158.0,4.7,90.0,180.0,False,True,False
101,0x130e4b4846aecd11:0x4ab28992ef07b1a7,8f3f304260a56b4,36.0266386,14.295964800000002,Grand Hotel Gozo,{hotelatmbarindoor_swimming_pooloutdoor_swimming_poolparking_garagerestaurantspa_and_health_club},{serviceautomobiledrinksfoodrecreationtourism},ChIJEc2uRkhLDhMRp7EH75KJsko,{Triq Sant Antnin MgarrGozo GSM 9026Malta},Europe/Malta,False,False,,,35622161000.0,http://www.grandhotelmalta.com/,518.0,4.3,,,False,False,False
102,0x130fb4b4b1221ee3:0x5c8bac4e551557d0,8f3f30426536460,36.025076,14.28559,Globetrotter Homestay,{holiday_accommodation_service},{tourism},ChIJ4x4isbS0DxMR0FcVVU6si1w,{28 Triq Ta' CordinaGħajnsielem GSM 2011Malta},Europe/Malta,False,False,,,35677700154.0,http://globetrotterguesth.wix.com/gozo-rentals,24.0,4.5,,,False,False,False
103,0x130e4b09ca6d40e9:0x4911fc8dd0b0d628,8f3f30426cca04e,36.027058600000004,14.2910381,Amabile Cauchi Playingfield,{playground},{recreation},ChIJ6UBtyglLDhMRKNaw0I38EUk,{27GR+RCFGhajnsielemMalta},Europe/Malta,False,False,,,,,,,,,False,False,False
104,0x130e45657785143f:0xcf48fb0ab3d94d4a,8f3f30450401573,35.9283266,14.483288,Pembroke Pharmacy,{pharmacy},{medical},ChIJPxSFd2VFDhMRSk3Zswr7SM8,{87 Giuseppe MalfeggianiPembroke PBK 1261Malta},Europe/Malta,False,False,,,35621372784.0,,5.0,4.0,15.0,15.0,True,True,True
105,0x130e4565000a6d1b:0x82f660f0ee32f89b,8f3f30450436528,35.9286401,14.480568400000001,Pembroke Supermarket,{supermarket},{groceries},ChIJG20KAGVFDhMRm_gy7vBg9oI,{152 Patri Indri VellaPembroke PBK 1311Malta},Europe/Malta,False,False,,,35621378606.0,,96.0,4.4,15.0,15.0,True,True,True
106,0x130e45647506d89b:0x15d042102d4df10,8f3f30450591b5c,35.927512799999995,14.4783482,Maypole Pembroke,{convenience_store},{groceries},ChIJm9gGdWRFDhMREN_UAiEEXQE,{Madre Margerita De BrincatPembrokeMalta},Europe/Malta,False,False,,,35622581563.0,,12.0,4.4,10.0,10.0,True,True,True
107,0x130e4f05e703882f:0x59e7538d23884899,8f3f3045061552c,35.9253917,14.492265,The Westin Dragonara Resort Malta,{hotelindoor_lodgingmeeting_planning_servicewedding_venue},{tourismservice},ChIJL4gD5wVPDhMRmUiII41T51k,{Dragonara Road St. Julian'sSTJ 3143Malta},Europe/Malta,False,False,,,35621381000.0,https://www.marriott.com/hotels/travel/mlawi-the-westin-dragonara-resort-malta/?scid=bb1a189a-fec3-4d19-a255-54ba596febe2&y_source=1_NDI2NjI1MC03MTUtbG9jYXRpb24uZ29vZ2xlX3dlYnNpdGVfb3ZlcnJpZGU%3D,2173.0,4.6,,,False,False,False
108,0x130e456bbfe91a17:0x4d9099a51e8b62f1,8f3f3045068051b,35.9227936,14.4911794,Hotel Valentina,{hotel},{tourism},ChIJFxrpv2tFDhMR8WKLHqWZkE0,{DobbieSt Julian'sMalta},Europe/Malta,False,False,,,35621382232.0,http://www.hotelvalentina.com/,684.0,4.7,,,False,False,False
109,0x130e456bbd73ff6d:0x3f584a822e6861bb,8f3f30450681cf0,35.922924,14.491765,Alexandra Hotel Malta,{hotel},{tourism},ChIJbf9zvWtFDhMRu2FoLoJKWD8,{Schreiber Street PacevilleSchreiber StSan ĠiljanMalta},Europe/Malta,False,False,,,35621351151.0,http://www.alexandrahotelmalta.com/,1445.0,3.5,,,False,False,False
110,0x130e456be9f32b6b:0x5df9b79a01eb85fb,8f3f30450684450,35.9231591,14.4909508,The George Urban Boutique Hotel,{hotel},{tourism},ChIJayvz6WtFDhMR-4XrAZq3-V0,{Triq Paceville Saint Julian's STJ3103Malta},Europe/Malta,False,False,,,35620111000.0,https://www.thegeorgemalta.com/,461.0,4.2,,,False,False,False
111,0x130e456beb78b27b:0xb483bd7dc12ba45f,8f3f304506848e8,35.923439,14.491076999999999,Lombard Bank Malta p.l.c.,{bank},{service},ChIJe7J462tFDhMRX6QrwX29g7Q,{Paceville Avenue San Ġiljan STJ3103Malta},Europe/Malta,False,False,,,35625581400.0,http://www.lombardmalta.com/,2.0,3.0,,,True,True,True
112,0x130e456b91348595:0x445ed64a173f2dc4,8f3f30450685071,35.923333,14.4917234,Tana Del Lupo,{italian_restaurant},{food},ChIJlYU0kWtFDhMRxC0_F0rWXkQ,{Triq il-WilgaSt Julian'sMalta},Europe/Malta,False,True,,,,,3.0,3.3,,,False,False,False
113,0x130e456bc698e8f5:0x52131d898cd26197,8f3f30450686661,35.9227223,14.4909212,Il Pirata Restaurant,{mediterranean_restaurant},{food},ChIJ9eiYxmtFDhMRl2HSjIkdE1I,{Triq PacevilleSt Julian'sMalta},Europe/Malta,True,False,,2.0,35621375827.0,https://ilpirata.com.mt/,919.0,4.4,,,False,True,False
114,0x130e456b01562117:0xcc50d0fd1b403a4,8f3f3045068b151,35.9221788,14.493209,Hilton Malta,{hotel},{tourism},ChIJFyFWAWtFDhMRpAO00Q8NxQw,{Vjal Portomaso St Julian's PTM01Malta},Europe/Malta,False,False,,,35621383383.0,https://www3.hilton.com/en/hotels/malta/hilton-malta-MLAHITW/index.html?WT.mc_id=zELWAKN0EMEA1HI2DMH3LocalSearch4DGGenericx6MLAHITW,3804.0,4.7,,,False,False,False
115,0x130e456bcde63abd:0xcc7740137465ea03,8f3f30450691151,35.9220888,14.4908464,The Avenue Restaurant,{italian_restaurant},{food},ChIJvTrmzWtFDhMRA-pldBNAd8w,{Triq GortSt Julian'sMalta},Europe/Malta,False,False,,2.0,35621351753.0,https://www.theavenuemalta.com/,2989.0,4.4,60.0,120.0,True,True,True
116,0x130e456bcb8270b5:0xabee4d634c3deaaa,8f3f30450691386,35.921983700000006,14.490929099999999,Maltese Mama Restaurant,{maltese_restaurantitalian_restaurantrestaurant},{food},ChIJtXCCy2tFDhMRquo9TGNN7qs,{19Paceville AvenueSt Julian's STJ 3108Malta},Europe/Malta,False,True,,2.0,35627377024.0,https://www.facebook.com/Maltese-Mama-1764083610481417/,508.0,4.4,,,False,True,False
117,0x130e453e97eb8ef1:0x562cc6a82b649b4a,8f3f30450692376,35.9216102,14.490160699999999,Alice Pizza,{pizza_restaurant},{food},ChIJ8Y7rlz5FDhMRSptkK6jGLFY,{137 St George's RoadSt Julian'sMalta},Europe/Malta,False,False,,1.0,35621382009.0,http://www.alicepizza.it/,569.0,4.6,20.0,20.0,True,True,True
118,0x130e456a4e4601cd:0x34762a7b4ef66faf,8f3f3045069bcdd,35.9212385,14.491871,Cleland & Souchet,{wine_storegift_basket_storegift_shopjewelry_storewine_club},{shoppingentertainment},ChIJzQFGTmpFDhMRr2_2TnsqdjQ,{Block 14 Vjal Portomaso San ĠiljanSTJ 4013Malta},Europe/Malta,False,False,,,35621389898.0,https://www.clelandsouchet.com/,136.0,4.6,30.0,90.0,True,True,True
119,0x130e456b894dcee7:0xcdcbda8aab60fa84,8f3f304506a10ad,35.9241167,14.491608300000001,Golden Tulip Vivaldi Hotel,{hotelconference_centergymloungeswimming_pool},{art_culturesportrecreationtourism},ChIJ585NiWtFDhMRhPpgq4ray80,{Triq Dragonara San Ġiljan STJ06Malta},Europe/Malta,False,False,,,35621378100.0,https://vivaldi.goldentulip.com/,1559.0,4.1,,,False,False,False
120,0x130e456beec9e183:0x7de1e254e43cb39d,8f3f304506a2446,35.923581,14.4906533,The Olde Keg,,,ChIJg-HJ7mtFDhMRnbM85FTi4X0,{Triq il-WilgaSt Julian'sMalta},Europe/Malta,False,True,,,,,3.0,4.0,,,False,False,False
121,0x130e456b99b5e3cd:0xa66d4b529bb6f5ab,8f3f304506ae8ae,35.9238821,14.4918576,Shivas Indian restaurant,{indian_restaurant},{food},ChIJzeO1mWtFDhMRq_W2m1JLbaY,{Triq DragunaraSt Julian'sMalta},Europe/Malta,False,False,,2.0,35621384399.0,https://shivasmalta.com/,169.0,4.2,,,True,True,True
122,0x130e456be5327d97:0xf6f16dd86ef5c111,8f3f304506b5b4d,35.9238671,14.4903935,L'Ostricaio Malta (Paceville and Balluta bay),{restaurant},{food},ChIJl30y5WtFDhMREcH1btht8fY,{Triq BallSt Julian'sMalta},Europe/Malta,False,False,,2.0,35627050936.0,,753.0,4.5,90.0,120.0,True,True,True
123,0x130e456be21ef713:0x7e715c82e8e16dfe,8f3f304506b5cc6,35.923671399999996,14.489973,PV Hostel,{hostel},{tourism},ChIJE_ce4mtFDhMR_m3h6IJccX4,{13 Triq il-WilgaSt Julian'sMalta},Europe/Malta,False,False,,,35679097447.0,http://pv-hostel.gotomalta.co.uk/,150.0,3.7,,,False,False,False
124,0x130e456de64b489f:0x63206b35bcd037e6,8f3f30450706d4a,35.9287799,14.4903902,Corinthia St George's Bay,{hotelresort_hotel},{tourism},ChIJn0hL5m1FDhMR5jfQvDVrIGM,{St Georges BaySt Julians STJ 3301Malta},Europe/Malta,False,False,,,35621374114.0,http://www.corinthia.com/stgeorges,2246.0,4.5,,,False,False,False
125,0x130e456a808f528b:0x867bfeae3f40e149,8f3f3045079048d,35.924657,14.487863,Hard Rock Cafe,{american_restaurant},{food},ChIJi1KPgGpFDhMRSeFAP67-e4Y,{Level 2 Baystreet Complex St George's Bay St Julian'sSTJ 1275Malta},Europe/Malta,False,True,0x130e45692de6f53d:0x4a6c1ed1c9caf574,2.0,35621380983.0,https://www.hardrockcafe.com/location/malta/#utm_source=Google&utm_medium=Yext&utm_campaign=Listings,2731.0,4.3,,,False,True,False
126,0x130e456ecb0f6583:0xeacf846c6b045019,8f3f30450790b85,35.924963,14.488114000000001,eeetwell,{health_food_restaurant},{food},ChIJg2UPy25FDhMRGVAEa2yEz-o,{Triq Santu Wistin San ĠiljanSTJ 3311Malta},Europe/Malta,False,False,,1.0,35627549610.0,http://eeetwell.com/,484.0,4.5,20.0,60.0,True,True,True
127,0x130e456936ed3323:0x63685b100be2c011,8f3f30450793cd2,35.924401399999994,14.4881429,Capt. A. Caruana - Wines Spirits and Tobacco,{wine_storecigar_shoptobacco_shop},{shopping},ChIJIzPtNmlFDhMREcDiCxBbaGM,{Triq Santu WistinSan GiljanSTJ 3313Malta},Europe/Malta,False,False,,,35621380950.0,https://www.captcaruana.com/,74.0,4.7,,,True,True,True
128,0x130e456934578929:0xd9be14ea32c5e8c2,8f3f30450796214,35.924749,14.487619,be.Hotel,{hotel},{tourism},ChIJKYlXNGlFDhMRwujFMuoUvtk,{Bay Street Tourist Complex St. George's BaySan Ġiljan STJ 3311Malta},Europe/Malta,False,False,0x130e45692de6f53d:0x4a6c1ed1c9caf574,,35623719000.0,http://www.behotelmalta.com/,1556.0,4.1,,,False,False,False
129,0x130e455c786f6495:0xd11fe8dfc5831f65,8f3f304520646e6,35.915184,14.480792999999998,Gateway School of English GSE - English language school and quality English courses in Malta,{english_language_schooladult_education_schooleducation_centerenglish_language_campenglish_language_instructorlanguage_schoolschool},{education},ChIJlWRveFxFDhMRZR-Dxd_oH9E,{Triq Il-BosfruSt Julian'sMalta},Europe/Malta,False,False,,,35621375086.0,http://www.english-malta.com/,107.0,4.4,,,False,True,False
130,0x130e455b8792495f:0x62acac2235ee9de6,8f3f3045206685e,35.915117200000005,14.480469,Gateway School of English Residence Accommodation,{serviced_accommodationenglish_language_campenglish_language_school},{apartmenteducation},ChIJX0mSh1tFDhMR5p3uNSKsrGI,{GSE Residence Triq il-Bosfru San GwannSGN 1953Malta},Europe/Malta,False,False,,,35621375086.0,https://english-malta.com/accommodation/the-gateway-school-student-residence/,12.0,3.7,,,False,False,False
131,0x130e455791c0708d:0xbde96a3e25d16b77,8f3f30452090a86,35.909777000000005,14.474248999999999,La Rovesciata,{sports_bar},{drinks},ChIJjXDAkVdFDhMRd2vRJT5q6b0,{Triq Il- KampanellaSan GwannMalta},Europe/Malta,False,False,,2.0,35627036442.0,http://www.larovesciata.com/,148.0,4.2,,,False,True,False
132,0x130e455a3dbc90c3:0xd2200e1d03aab7fe,8f3f304520e3551,35.9115184,14.4792531,The Hub Workspace,{coworking_space},{office},ChIJw5C8PVpFDhMR_reqAx0OINI,{Triq San AndrijaSan Gwann SGN 1612Malta},Europe/Malta,False,False,,,35627662766.0,http://www.thehubmalta.com/,35.0,4.3,,,False,True,False
133,0x130e4540b97c3493:0x622e2d2c4751fa7d,8f3f3045227641d,35.9114676,14.4896196,Goloso Gastro Bar,{restaurant},{food},ChIJkzR8uUBFDhMRffpRRywtLmI,{10 Triq BirkirkaraSt Julian'sMalta},Europe/Malta,False,False,,1.0,35621384481.0,https://gastrobar.golosogroup.com/,337.0,4.4,,,False,True,False
134,0x130e4544f390f3ff:0xa97641126e2905e5,8f3f304523198d8,35.912812,14.486466,Chic Hair & MakeUp,{hair_salon},{beauty},ChIJ__OQ80RFDhMR5QUpbhJBdqk,{Triq D. Sciculus No 39Ta Giorni San GiljanMalta},Europe/Malta,False,False,,,35627427375.0,https://www.facebook.com/ChicHairAndMakeMalta/,11.0,5.0,,,False,True,False
135,0x130e45d92e754a17:0x118ea42d87972b87,8f3f3045236cc6a,35.9154422,14.490391899999999,The Podium Block A,{lodging},{misc},ChIJF0p1LtlFDhMRhyuXhy2kjhE,{The PodiumSt Mark StSt Julian'sMalta},Europe/Malta,False,False,,,,,,,,,False,False,False
136,0x130e455aa16694c5:0x4b973874fe078f78,8f3f30452393155,35.909704299999994,14.482752300000001,Emma's Kitchen,{cafe},{cafe},ChIJxZRmoVpFDhMReI8H_nQ4l0s,{Triq In-NaxxarSan Gwann SGN 9033Malta},Europe/Malta,False,False,,2.0,35620991184.0,http://www.emmaskitchen.com.mt/,635.0,4.4,20.0,90.0,True,True,True
137,0x130e4ff92b9a5503:0x79cda2559d2daa7f,8f3f3045241ad60,35.9059141,14.4690755,HomeTrends,{home_improvement_storefireplace_storefurniture_accessoriesfurniture_storegift_shophome_goods_storeoutdoor_furniture_store},{shoppingwholesaler},ChIJA1WaK_lPDhMRf6otnVWizXk,{Triq taż-ŻwejtSan GwannMalta},Europe/Malta,False,False,,,35621445654.0,http://www.hometrends.com.mt/,207.0,4.2,20.0,20.0,True,True,True
138,0x130e4fca681ffe7d:0x293f347eb385e823,8f3f3045241e743,35.9060529,14.469046300000002,Baby & Kids by Home Trends,{baby_storebaby_clothing_storechildrens_clothing_storechildrens_storematernity_store},{shopping},ChIJff4faMpPDhMRI-iFs340Pyk,{Baby & Kids Triq taż-Żwejt San GwannSGN 3000Malta},Europe/Malta,False,False,,,35621445654.0,https://hometrendsbabyandkids.com.mt/,,,,,False,True,False
139,0x130e4557b66a07af:0x2375a4a87544f9ce,8f3f3045244da83,35.9077365,14.4752416,San Gwann,,,ChIJrwdqtldFDhMRzvlEdaikdSM,{Malta},Europe/Malta,False,False,,,,http://www.sangwannmalta.org/,,,,,False,False,False
140,0x130e4ffde8e3ecf7:0x5a50b6900a0489ab,8f3f3045250d95a,35.9105304,14.468762300000002,Lighthouse kitchen and Lounge,{italian_restaurantcoffee_shop},{foodcafe},ChIJ9-zj6P1PDhMRq4kECpC2UFo,{2321Shop 10 Triq id-Disgha Ta’ Frar 1799 San Gwann SGN10 Triq id-Disgħa ta' Frar 1799San Ġwann Malta},Europe/Malta,False,True,,,35679084159.0,,48.0,4.5,,,False,True,False
141,0x130e4ff824eed1d3:0x7df93a393fb75b72,8f3f30452546d71,35.9105227,14.470360699999999,BoConcept Malta,{furniture_storebedroom_furniture_storeinterior_designerlighting_storeoffice_furniture_storerug_storesofa_store},{shoppingwholesalerservice},ChIJ09HuJPhPDhMRclu3Pzk6-X0,{Triq tal-BalalSan Gwann SGN 9016Malta},Europe/Malta,False,False,,,35621378011.0,https://www.boconcept.com/mt-mt/,26.0,4.1,,,True,True,True
142,0x130e45548ca6d317:0x9af354451a8f887d,8f3f304526b340c,35.9017952,14.4763961,Mater Dei Hospital,{hospital},{medical},ChIJF9OmjFRFDhMRfYiPGkVU85o,{Triq Dun Karm L-ImsidaMSD2090Malta},Europe/Malta,False,False,,,35625450000.0,https://ehealth.gov.mt/HealthPortal/health_institutions/hospital_services/mater_dei_hospital/mater_dei.aspx,305.0,3.7,,,False,True,False
143,0x130e45574b4d63f1:0xfef8e6e47b36c023,8f3f30452723805,35.9087941,14.477398,Lidl,{supermarket},{groceries},ChIJ8WNNS1dFDhMRI8A2e-Tm-P4,{Triq Ic-Ciklamini 18 San Ġwann SGN1331Malta},Europe/Malta,False,False,,,35680062777.0,https://www.lidl.com.mt/,3170.0,4.2,20.0,45.0,True,True,True
144,0x130e4550cd2cb787:0x29191bef5e8d86da,8f3f3045272a1a5,35.9082597,14.47826,The Charity Shop,{charityused_clothing_store},{shopping},ChIJh7cszVBFDhMR2oaNXu8bGSk,{9 Triq Tal MensijaSan Gwann SGN 1608Malta},Europe/Malta,False,False,,,35627017878.0,,20.0,4.6,,,False,True,False
145,0x130e4550cfbc3407:0x30550d4b443b6c64,8f3f3045272b41e,35.9080988,14.478774300000001,Bank Of Valletta,{bank},{service},ChIJBzS8z1BFDhMRZGw7REsNVTA,{184 Triq In-NaxxarSan Ġwann SGN 9030Malta},Europe/Malta,False,False,,,35621312020.0,,11.0,2.6,10.0,45.0,True,True,True
146,0x130e455719827721:0x70867f3bcb5ebf58,8f3f30452731523,35.9081,14.476364000000002,Vetcare Animal Clinic,{veterinarianemergency_veterinarian_service},{medical},ChIJIXeCGVdFDhMRWL9eyzt_hnA,{Misrah LourdesSan Gwann SGN 2010Malta},Europe/Malta,False,False,,,35621373277.0,http://www.vetcaremalta.com/,36.0,4.0,15.0,60.0,True,True,True
147,0x130e45fd44eb6229:0xe7f639fb0bdac132,8f3f30452760452,35.9090356,14.481163199999997,Tikka's Thai Street Food,{restaurant},{food},ChIJKWLrRP1FDhMRMsHaC_s59uc,{47 Triq In-NaxxarSan GwannMalta},Europe/Malta,False,False,,,35699333111.0,https://tikkasstreetfood.com/,164.0,4.7,15.0,15.0,True,True,True
148,0x130e4555e1504197:0xdffa800208087ecd,8f3f304527b670e,35.904990399999996,14.4734606,Caxton Printshop Ltd.,{commercial_printerprint_shopscreen_printer},{shopping},ChIJl0FQ4VVFDhMRzX4ICAKA-t8,{SUB007A San Gwann Industrial EstateSan Ġwann SGN 3000Malta},Europe/Malta,False,False,,,35621445906.0,http://www.caxtonprint.eu/,1.0,5.0,,,True,True,True
149,0x130e45355a2464cf:0x2b52c82fb69aa96f,8f3f304528059b4,35.922825200000005,14.4749077,Casumo,{company},{misc},ChIJz2QkWjVFDhMRb6mati_IUis,{The Unicorn Centre Triq Il-UqijaIs-SwieqiMalta},Europe/Malta,False,False,,,,https://www.casumo.com/,95.0,3.7,,,False,True,False
150,0x130e4560e3d4e95d:0x3d340f75a353e678,8f3f30452811a1b,35.921447,14.474420199999999,Agenda Bookshop,{book_store},{shopping},ChIJXenU42BFDhMReOZTo3UPND0,{Triq Sant' AndrijaSwieqiMalta},Europe/Malta,False,False,,,35621377311.0,https://millermalta.com/,37.0,4.5,25.0,25.0,True,True,True
151,0x130e456079eb73e1:0x5d95ea1ed6ec4b65,8f3f3045281cc10,35.921417,14.474595,Drift Meze/Cafe,{restaurantbreakfast_restaurantcafegreek_restaurantmediterranean_restaurant},{foodcafe},ChIJ4XPreWBFDhMRZUvs1h7qlV0,{Ibragg RoadSwieqiMalta},Europe/Malta,False,False,,2.0,35627138540.0,http://driftmezecafe.com/,280.0,4.4,,,True,True,True
152,0x130e45c673fd5947:0x7c68c4a7f8c40e40,8f3f304528ad228,35.9204934,14.4745137,Ben Estates,{real_estate_agency},{service},ChIJR1n9c8ZFDhMRQA7E-KfEaHw,{WFCF+5RRSwieqiMalta},Europe/Malta,False,False,,,35627677228.0,,,,,,False,True,False
153,0x130e456143cb94ef:0xe168e60f91ca8ad8,8f3f3045294011e,35.9252353,14.476696100000002,Triq Alamein,,,ChIJ75TLQ2FFDhMR2IrKkQ_maOE,{PembrokeMalta},Europe/Malta,False,False,,,,,,,,,False,False,False
154,0x130e45c5446d5a55:0x3468146135bd003e,8f3f3045298901a,35.921677700000004,14.472744,Embassy of Palestine,{embassy},{administration},ChIJVVptRMVFDhMRPgC9NWEUaDQ,{52 triq il moddSwieqi SWQ 2371Malta},Europe/Malta,False,False,,,35627801200.0,https://embassyofpalestine.business.site/?utm_source=gmb&utm_medium=referral,,,,,False,False,False
155,0x130e456a1b7c9217:0x371ed4e948f0156d,8f3f30452a41a1c,35.920037,14.490182,Sardinella Restaurant,{restaurant},{food},ChIJF5J8G2pFDhMRbRXwSOnUHjc,{St George's RoadSt Julian'sMalta},Europe/Malta,False,True,,2.0,35620993300.0,,467.0,4.0,,,False,True,False
156,0x130e456a00107a99:0x1af5b84be414e4fd,8f3f30452a43b73,35.9196931,14.4899138,Café Juliani,{cafeasian_fusion_restaurantbreakfast_restaurantcocktail_barsushi_restauranttea_house},{foodcafedrinks},ChIJmXoQAGpFDhMR_eQU5Eu49Ro,{25 Saint George's Road St Julian'sSTJ 3208Malta},Europe/Malta,False,False,0x130e456a006d4eef:0xf9fafbda86e5ba6b,,35621388000.0,http://www.cafejuliani.com/,100.0,4.5,,,True,True,True
157,0x130e45e4579941f1:0x355b52205004f4f,8f3f30452a4c942,35.92018529999999,14.490590099999999,Zen Sushi to Go - St. Julian's,{restaurant},{food},ChIJ8UGZV-RFDhMRT08ABSK1VQM,{St George's RoadSt Julian'sMalta},Europe/Malta,False,False,,,35621376203.0,http://www.zensushitogo.com/,276.0,4.5,15.0,60.0,True,True,True
158,0x130e456a0d03173f:0x71a359e3ea2f8fbb,8f3f30452a4d690,35.9197277,14.491187400000001,Gululu Restaurant,{maltese_restaurant},{food},ChIJPxcDDWpFDhMRu48v6uNZo3E,{133 Spinola bay St Julians RoadSan ĠiljanMalta},Europe/Malta,False,False,,2.0,35621333431.0,http://gululu.com.mt/,2107.0,4.1,90.0,150.0,False,True,False
159,0x130e456a008ffed9:0x3be2f23847bce534,8f3f30452a58d72,35.9187857,14.4895606,Spinola,{bus_station},{public_transportation},ChIJ2f6PAGpFDhMRNOW8Rzjy4js,{St Julian'sMalta},Europe/Malta,False,False,,,,,22.0,4.0,,,True,False,True
160,0x130e51d6a7b08e85:0xc3e6ef06d0f2e7ff,8f3f30452a58d81,35.918721000000005,14.489478,Badass Burgers,{hamburger_restaurantbar_and_grill},{food},ChIJhY6wp9ZRDhMR_-fy0Abv5sM,{No1 st Georges RoadSt Julian'sMalta},Europe/Malta,False,False,,2.0,35621384066.0,http://www.badass.com.mt/,973.0,4.4,,,True,True,True
161,0x130e4569f2cbab7b:0xf6f2a06f84809f83,8f3f30452a631a6,35.9207609,14.489279999999999,The Residence St. Julians,{self_catering_accommodation},{tourism},ChIJe6vL8mlFDhMRg5-AhG-g8vY,{Triq L.Apap Saint Julian'sSTJ 3325Malta},Europe/Malta,False,False,,,35699360031.0,http://theresidencestjulians.com/,35.0,3.0,,,False,False,False
162,0x130e456a36ce729d:0xcf3677ed63a03ee0,8f3f30452a6c8dc,35.921291499999995,14.490252400000001,Marco Polo Hostel,{hostel},{tourism},ChIJnXLONmpFDhMR4D6gY-13Ns8,{Triq RossSt Julian'sMalta},Europe/Malta,False,False,,,35627001430.0,https://sites.google.com/view/marcopolohostel/inicio,671.0,4.4,,,False,False,False
163,0x130e456a2fd11b99:0x1ec9b6a80f673191,8f3f30452a6ca54,35.921310299999995,14.490479500000001,Big G's,{bar},{drinks},ChIJmRvRL2pFDhMRkTFnD6i2yR4,{Triq RossSt Julian'sMalta},Europe/Malta,False,False,,1.0,35699024100.0,,378.0,4.4,,,False,True,False
164,0x130e4543d60cde51:0x9437d7482562f921,8f3f30452acb158,35.9161928,14.489329399999999,Embassy of the People's Republic of China,{embassy},{administration},ChIJUd4M1kNFDhMRIfliJUjXN5Q,{Karmnu CourtTriq LapsiSan ĠiljanMalta},Europe/Malta,False,False,,,,http://mt.china-embassy.org/eng/,6.0,4.7,,,False,False,False
165,0x130e45424227ea27:0x1582de250cc515f1,8f3f30452ae12c3,35.918054,14.487975,Magister Academy,{english_language_school},{education},ChIJJ-onQkJFDhMR8RXFDCXeghU,{'L-Arkati'Mensija StSan Ġiljan STJ 1960Malta},Europe/Malta,False,False,,,35627505550.0,,14.0,4.4,,,False,True,False
166,0x130e45691da12aa5:0xba6d3d24090a1030,8f3f30452b44103,35.923178,14.486872,The District Hotel,{hotel},{tourism},ChIJpSqhHWlFDhMRMBAKCSQ9bbo,{Triq Santu WistinSt Julian'sMalta},Europe/Malta,False,False,,,35627411441.0,http://www.thedistricthotel.com.mt/,296.0,4.4,,,False,False,False
167,0x130e45690e48f52b:0x8358d20ed2b05ab0,8f3f30452b48684,35.9221456,14.4887321,Le Majoliche,{restaurantitalian_restaurantseafood_restaurant},{food},ChIJK_VIDmlFDhMRsFqw0g7SWIM,{Pendergardens Is-Swieqi STJ 9023Triq Sant' AndrijaSt Julian'sMalta},Europe/Malta,False,False,0x130e45699f3b66ab:0x5259d0fdd179c24d,2.0,35621376212.0,https://www.facebook.com/lemajolicherestaurant/,807.0,4.7,90.0,180.0,True,True,True
168,0x130e456972d524cf:0xbaf39d46f26d5899,8f3f30452b4c586,35.9226406,14.4881508,EC Malta English School and EC Malta 30+ (Adult English Centre),{english_language_schooladult_education_schooleducational_institutionlanguage_schoollearning_centerprivate_schoolschool},{education},ChIJzyTVcmlFDhMRmVht8kad87o,{Language House' Marguerite Mangion Street St. Julian'sSTJ 3180Malta},Europe/Malta,False,False,,,35623790000.0,https://www.ecenglish.com/en/school-locations/malta/learn-english-in-malta,144.0,4.2,,,False,True,False
169,0x130e4568df2dc6f5:0x7c31b82905d90b0d,8f3f30452b60ced,35.923976,14.486744,CAMAS Malta,{training_center},{education},ChIJ9cYt32hFDhMRDQvZBSm4MXw,{Peace Haven Villa Santu Wistin RoadSan Ġiljan SWQ 3310Malta},Europe/Malta,False,False,,,35621376763.0,http://www.camasmalta.com/,5.0,4.0,,,False,True,False
170,0x130e456939fd14c9:0x37d018d5b33629af,8f3f30452b6c8ae,35.9241417,14.4879892,Casino Malta,{casinotourist_attraction},{entertainmenttourism},ChIJyRT9OWlFDhMRryk2s9UY0Dc,{Eden Place St Augustine Street St George's BaySan Ġiljan STJ 3310Malta},Europe/Malta,False,False,,,35623710555.0,http://www.casinomalta.com.mt/,1254.0,4.2,60.0,180.0,True,True,True
171,0x130e456789937099:0xf746f050f759903c,8f3f30452b8454d,35.919904200000005,14.480731200000001,Garden View Holiday Complex,{hotel},{tourism},ChIJmXCTiWdFDhMRPJBZ91DwRvc,{WF9J+X79SwieqiMalta},Europe/Malta,False,False,,,35623772107.0,,122.0,3.7,,,False,False,False
172,0x130e455d5cedf21b:0x9233921d44431a94,8f3f30452b8d892,35.9197277,14.482793599999999,Ġnien F.X.Ebejer,{park},{recreation},ChIJG_LtXF1FDhMRlBpDRB2SM5I,{Is-SwieqiMalta},Europe/Malta,False,False,,,,,,,,,False,False,False
173,0x130e456744f95e07:0x1ea1f81539517e0f,8f3f30452bb5d12,35.920432899999994,14.4796283,Holiday Malta Villas & Apartments,{vacation_home_rental_agencyapartment_rental_agencyholiday_accommodation_serviceholiday_apartment_rentalvilla},{tourismservice},ChIJB175RGdFDhMRD35RORX4oR4,{Nr 1  Ivy MansionsTriq il qasam SwieqiSt Julian'sMalta},Europe/Malta,False,False,,,35621678781.0,https://holiday-malta.com/,8.0,3.8,,,False,False,False
174,0x130e453d20cdb4b5:0x92cdd2cc05a0746b,8f3f304530000b3,35.9147156,14.5061744,Le Malte,{maltese_restaurant},{food},ChIJtbTNID1FDhMRa3SgBczSzZI,{Tower RoadSliemaMalta},Europe/Malta,False,True,,,35621342242.0,,116.0,3.9,,,False,True,False
175,0x130e453cb7f876fb:0x8aa5e4c6bcc9e2b0,8f3f30453018173,35.9136001,14.506597699999999,Preluna Hotel - Malta,{hotel},{tourism},ChIJ-3b4tzxFDhMRsOLJvMbkpYo,{124 Tower RoadSliema SLM 1605Malta},Europe/Malta,False,False,,,35621334001.0,http://www.preluna.com/,1365.0,3.9,,,False,False,False
176,0x130e453ceb510a23:0x9e25c64fb5e17865,8f3f3045301c448,35.9138193,14.5062152,Sciantusi,{italian_restaurantbeer_hallhamburger_restaurantpizza_restaurantpizzatakeaway},{fooddrinks},ChIJIwpR6zxFDhMRZXjhtU_GJZ4,{Triq MilnerSliemaMalta},Europe/Malta,False,False,,2.0,35621313181.0,https://www.sciantusi.com/,1004.0,4.4,,,True,True,True
177,0x130e453da83caa13:0x1dbe149444d500bc,8f3f3045303409b,35.9154411,14.5044,Il-Gabbana,{cafebarbistro},{cafedrinks},ChIJE6o8qD1FDhMRvADVRJQUvh0,{Tower RoadSliema SLM 1604Malta},Europe/Malta,False,False,,2.0,35627011527.0,http://www.ilgabbana.com/,1649.0,4.3,20.0,90.0,True,True,True
178,0x130e453b60b15d1b:0x8efc3733b64c10d6,8f3f30453088983,35.9115999,14.505653200000001,Casa Natura,{health_food_store},{groceries},ChIJG12xYDtFDhMR1hBMtjM3_I4,{Triq il-Kbira Tas-SliemaSLM 1548Malta},Europe/Malta,False,False,,,35621319929.0,http://www.casanaturamalta.com/,30.0,4.6,15.0,15.0,True,True,True
179,0x130e453b676fa459:0xef2ea6f78a18c28f,8f3f3045308b01b,35.9110029,14.5061074,Fortedent Dental Clinic,{dental_clinic},{medical},ChIJWaRvZztFDhMRj8IYivemLu8,{114 High StreetSliemaMalta},Europe/Malta,False,False,,,35627333111.0,http://www.fortedent.com/,107.0,5.0,45.0,60.0,True,True,True
180,0x130e453b5d428465:0xe9902f5f8a68ba07,8f3f3045308b034,35.9110516,14.5060562,Delizie Siciliane,{sicilian_restaurantcafe},{foodcafe},ChIJZYRCXTtFDhMRB7poil8vkOk,{Triq il KbiraTas-SliemaMalta},Europe/Malta,False,False,,,35627659941.0,,204.0,4.8,20.0,20.0,True,True,True
181,0x130e453b63ea7da3:0x946f1c8be869de1a,8f3f3045308c198,35.911806799999994,14.505384699999999,Hole in the Wall Bar & Cafe,{barcafe},{cafedrinks},ChIJo33qYztFDhMRGt5p6Iscb5Q,{31 High StreetSliema SLM 1549Malta},Europe/Malta,False,False,,1.0,35699808386.0,https://holeinthewall.com.mt/,691.0,4.7,,,True,True,True
182,0x130e453c721aa8fd:0x9c4dc1457f86cabf,8f3f304530a6098,35.9129119,14.503317000000001,Saint James Hospital,{hospitalmedical_clinicprivate_hospital},{medical},ChIJ_agacjxFDhMRv8qGf0XBTZw,{George Borg Olivier Street SliemaSLM 1807Malta},Europe/Malta,False,False,,,35623291000.0,http://www.stjameshospital.com/,172.0,3.3,,,False,True,False
183,0x130e453bf5219e49:0x48767cd0a91f02db,8f3f304530b0140,35.912201,14.502823999999999,Salisbury Arms,{pubrestaurant},{fooddrinks},ChIJSZ4h9TtFDhMR2wIfqdB8dkg,{81 Triq Il - KbiraSliema SLM 1506Malta},Europe/Malta,False,False,,1.0,35627868177.0,http://www.salisburyarmspub.com/,730.0,4.6,45.0,120.0,True,True,True
184,0x130e453b8830c555:0xfb64fdbe5044fe21,8f3f304530b1035,35.91218320000001,14.5033524,AX The Palace Malta,{hotelcafegymindoor_swimming_poolrestaurantspaswimming_pool},{beautysportfoodcaferecreationtourism},ChIJVcUwiDtFDhMRIf5EUL79ZPs,{Triq il-Kbira SliemaSLM 1542Malta},Europe/Malta,False,False,,,35621333444.0,https://thepalacemalta.com/?utm_source=gmb&utm_medium=organic&utm_campaign=Google%20My%20Business,1742.0,4.5,,,False,False,False
185,0x130e453b897a2b0d:0x4175c3c8191fd965,8f3f304530b1574,35.9121176,14.5032206,Triq Il - Kbira,,,ChIJDSt6iTtFDhMRZdkfGcjDdUE,{Tas-SliemaMalta},Europe/Malta,False,False,,,,,,,,,False,False,False
186,0x130e453c0a4c4729:0x7de4643603e50073,8f3f304530b4af1,35.912619,14.502668900000002,AX The Victoria Hotel,{hotelbargymindoor_swimming_pooloutdoor_swimming_poolrestaurantspa},{beautydrinkssportfoodrecreationtourism},ChIJKUdMCjxFDhMRcwDlAzZk5H0,{Gorg Borg Olivier Street SliemaSLM 1807Malta},Europe/Malta,False,False,,,35621334711.0,https://victoriahotel.com/?utm_source=gmb&utm_medium=organic&utm_campaign=Google%20My%20Business,1130.0,4.5,,,False,False,False
187,0x130e453caf18daf9:0xc872c4f01b05943e,8f3f304530f60cd,35.9122296,14.506416,Roma Hotel,{hotel},{tourism},ChIJ-doYrzxFDhMRPpQFG_DEcsg,{17 Ghar il - LembiSliemaMalta},Europe/Malta,False,False,,,35621318587.0,http://www.romahotel.eurorentals.info/,275.0,3.2,,,False,False,False
188,0x130e453e7f4e7179:0xee512ab8460d1579,8f3f304531a676a,35.9157094,14.501265900000002,St Patrick's Salesian School,{school},{education},ChIJeXFOfz5FDhMReRUNRrgqUe4,{St. John BoscoTas-Sliema SLM 1925Malta},Europe/Malta,False,False,,,35621339337.0,http://www.salesiansmalta.org/schools/st-patricks-school/,4.0,4.5,,,False,False,False
189,0x130e4537f994206d:0xe69d27055dad992,8f3f3045340270a,35.9080707,14.497942000000002,Gzira Health Centre,{medical_center},{medical},ChIJbSCU-TdFDhMRktnaVXDSaQ4,{55 Triq Il-FlottaGziraMalta},Europe/Malta,False,False,,,35621344766.0,https://deputyprimeminister.gov.mt/en/phc/Pages/Health-Centres/Gzira-Health-Centre.aspx,74.0,2.1,,,False,True,False
190,0x130e4598c07492e5:0x9fa2008b94ef797a,8f3f3045341a80e,35.90713970000001,14.498227400000001,ATM (Euronet),{atm},{service},ChIJ5ZJ0wJhFDhMRennvlIsAop8,{115 Triq Ix - XattGziraMalta},Europe/Malta,False,False,0x130e453783e6aed3:0x1b23267be41833e0,,,,4.0,1.0,,,False,False,False
191,0x130e45385711a5a3:0x91b3ffd06b69626e,8f3f30453420909,35.910087700000005,14.497794699999998,MaltaPost,{post_office},{service},ChIJo6URVzhFDhMRbmJpa9D_s5E,{118 Triq Manwel DimechSliemaMalta},Europe/Malta,False,True,,,,https://maltapost.com/,15.0,3.2,,,False,True,False
192,0x130e453856b77019:0x126fee70618e2584,8f3f30453421d9b,35.909899200000005,14.498146599999998,Souvenirs That Don't Suck - Sliema,{gift_shopcorporate_gift_suppliersouvenir_manufacturer},{shoppingwholesaler},ChIJGXC3VjhFDhMRhCWOYXDubxI,{108 Triq Manwel Dimech Tas-SliemaSLM 1055Malta},Europe/Malta,False,False,,,35679072313.0,http://www.souvenirsthatdontsuck.mt/,282.0,4.7,15.0,15.0,True,True,True
193,0x130e453918e77c0b:0xffd60e35f37f6cc7,8f3f30453425686,35.9100482,14.498117,Triq Manwel Dimech,,,ChIJC3znGDlFDhMRx2x_8zUO1v8,{Malta},Europe/Malta,False,False,,,,,,,,,False,False,False
194,0x130e4539a1595a67:0x4d45d767f96a2a0d,8f3f3045342d60c,35.9097549,14.499692999999999,AM Language,{english_language_schoollanguage_school},{education},ChIJZ1pZoTlFDhMRDSpq-WfXRU0,{299 Triq Manwel DimechSliema SLM 1054Malta},Europe/Malta,False,False,,,35621324242.0,http://www.amlanguage.com/,121.0,4.1,,,False,True,False
195,0x130e453a4bcd538d:0x7defd6b68d07c2,8f3f3045346a8b3,35.909362,14.503086999999999,Caffé Berry,{cafecoffee_shopcoffee_storedessert_shopespresso_barorganic_storetea_housetea_store},{cafedrinksgroceries},ChIJjVPNSzpFDhMRwgeNttbvfQA,{San DuminkuSliemaMalta},Europe/Malta,False,False,,1.0,35699923183.0,http://www.caffeberry.com/,630.0,4.7,20.0,20.0,True,True,True
196,0x130e453a51440ac9:0xd173d3c4ed7b7d0a,8f3f3045346b773,35.9091576,14.5038612,Linen&Co,{souvenir_store},{shopping},ChIJyQpEUTpFDhMRCn177cTTc9E,{WG53+MG9SliemaMalta},Europe/Malta,False,False,,,35627413272.0,,9.0,3.6,,,False,True,False
197,0x130e45398db9b42b:0x88b753e562beeeed,8f3f30453473da5,35.908832000000004,14.50085,Pace Guest House,{guest_house},{misc},ChIJK7S5jTlFDhMR7e6-YuVTt4g,{10 Triq Sant' AgataTas-Sliema SLM 1015Malta},Europe/Malta,False,False,,,35621343357.0,http://www.paceguesthouse.com/,25.0,4.2,,,False,False,False
198,0x130e45c7184665cb:0x485d43d4c4a00726,8f3f30453483536,35.9051746,14.496305800000002,Piekarnia Mr Maxims,{bakery},{cafe},ChIJy2VGGMdFDhMRJgegxNRDXUg,{184 Triq Ix - XattGziraMalta},Europe/Malta,False,False,,,35627335756.0,https://www.facebook.com/mrmaximspastizzeria/,85.0,4.5,10.0,10.0,True,True,True
199,0x130e45256229dd63:0xba4f9dfa3c3a1be5,8f3f30453483cf1,35.9052394,14.4963657,Balance Bowl,{vegan_restaurant},{food},ChIJY90pYiVFDhMR5Rs6PPqdT7o,{Il182 Triq Ix - XattGzira GZR 1024Malta},Europe/Malta,False,False,,,35627320556.0,http://balance-bowl.com/,478.0,4.8,,,True,True,True
200,0x130e4537dda5f62f:0xf64604d9d2e7d0c5,8f3f30453485a0a,35.906172,14.496703,Ali Baba,{lebanese_restaurant},{food},ChIJL_al3TdFDhMRxdDn0tkERvY,{Triq Sir Frederick C. PonsonbyGziraMalta},Europe/Malta,False,False,,3.0,35621340119.0,http://hanyharb.com/,624.0,4.7,90.0,180.0,True,True,True
201,0x130e4537c16a994d:0xbcf914fead075a94,8f3f30453485a4b,35.9061756,14.4968,6 Triq Sir Frederick C. Ponsonby,,,ChIJTZlqwTdFDhMRlFoHrf4U-bw,{Il-GżiraMalta},Europe/Malta,False,False,,,,,,,,,False,False,False
202,0x130e4537c2fc688f:0x93cbef97ecaab8f9,8f3f30453485a55,35.9061875,14.4967486,Euro Guesthouse,{hotel},{tourism},ChIJj2j8wjdFDhMR-biq7Jfvy5M,{6 Triq Sir Frederick C. Ponsonby Street GziraGZR 1075Malta},Europe/Malta,False,False,,,35621311970.0,http://www.euroguesthousemalta.com/,118.0,3.9,,,False,False,False
203,0x130e454457aefd2f:0xb499d58d76c3d281,8f3f30453491698,35.904523499999996,14.495700199999998,the Crew Cafè Bar,{barcoffee_shop},{cafedrinks},ChIJL_2uV0RFDhMRgdLDdo3VmbQ,{207 Triq Ix - XattGzira GZR 1023Malta},Europe/Malta,False,False,,,35621332508.0,https://www.thecrewcafebar.com/,133.0,4.8,,,False,True,False
204,0x130e4549df14a6c5:0x1f835a23b5c778c5,8f3f30453493759,35.9042187,14.495505800000002,Bank of Valletta p.l.c. - Gzira Branch,{bank},{service},ChIJxaYU30lFDhMRxXjHtSNagx8,{216 Triq l-ImsidaGziraMalta},Europe/Malta,False,False,,,,,17.0,2.0,10.0,45.0,True,True,True
205,0x130e450a6e7438bd:0x5af47e8f69212d52,8f3f304534a550b,35.907211100000005,14.495996700000001,David Hardware Store,{hardware_store},{wholesaler},ChIJvTh0bgpFDhMRUi0haY9-9Fo,{76 Fleet streetGziraMalta},Europe/Malta,False,False,,,35621315912.0,https://david-hardware-store.business.site/,6.0,4.5,,,False,True,False
206,0x130e4537befa53a7:0x9b987be2f7e89ff8,8f3f304534a8712,35.906368799999996,14.497360800000001,Subway,{sandwich_shopfast_food_restaurantmeal_takeawayrestaurant},{food},ChIJp1P6vjdFDhMR-J_o9-J7mJs,{144 The Strand Gzira/SliemaGZR 1026Malta},Europe/Malta,False,False,,1.0,35699626536.0,https://restaurants.subway.com/mt/malta/gzira/sliema/144-the-strand?utm_source=yxt-goog&utm_medium=local&utm_term=acq&utm_content=52799&utm_campaign=evergreen-2020&y_source=1_MTQ5MjM4MTMtNzE1LWxvY2F0aW9uLmdvb2dsZV93ZWJzaXRlX292ZXJyaWRl,273.0,3.6,,,True,True,True
207,0x130e4537bf348175:0x2d6311d6911c63bb,8f3f304534aa0e9,35.906052,14.4971929,Posh Turkish,{kebab_shop},{food},ChIJdYE0vzdFDhMRu2MckdYRYy0,{Triq Sir Frederick C. PonsonbyGziraMalta},Europe/Malta,False,False,,2.0,35621341866.0,https://www.facebook.com/poshturkish/,818.0,4.5,15.0,45.0,True,True,True
208,0x130e45b521f64cc9:0x67eb424136f2b37f,8f3f304534aa705,35.9059829,14.497116,Storie & Sapori - Gzira - Malta,{restaurant},{food},ChIJyUz2IbVFDhMRf7PyNkFC62c,{152 The Strand Il-Gżira GZRGziraMalta},Europe/Malta,False,False,,2.0,35621343143.0,https://www.storieesapori.com/,390.0,4.3,60.0,120.0,True,True,True
209,0x130e4501edfb329b:0x9edcdba888218c47,8f3f304534aa844,35.9062794,14.497136300000001,St Hotels,{hotel},{tourism},ChIJmzL77QFFDhMRR4whiKjb3J4,{143 Level-1 The Strand GziraGZR 1026Malta},Europe/Malta,False,False,,,35622641503.0,https://sthotelsmalta.com/,1481.0,3.7,,,False,False,False
210,0x130e4537c13d3225:0x5f2d9e77f71b403c,8f3f304534aad1a,35.9061606,14.4968511,5 Triq Sir Frederick C. Ponsonby,,,ChIJJTI9wTdFDhMRPEAb93eeLV8,{Il-GżiraMalta},Europe/Malta,False,False,,,,,,,,,False,False,False
211,0x130e4549c98ef66f:0xa8f230d82d333463,8f3f304534b1700,35.905896999999996,14.495333800000001,Gzira,,,ChIJb_aOyUlFDhMRYzQzLdgw8qg,{Malta},Europe/Malta,False,False,,,,,,,,,False,False,False
212,0x130e4540722e50a9:0x764f4ee66936f63,8f3f304534b594a,35.9066384,14.4950398,Blubay Suites by ST Hotels,{holiday_apartment_rental},{tourism},ChIJqVAuckBFDhMRY2-TZu70ZAc,{49 Sir F. Ponsonby Street GziraGZR 1071Malta},Europe/Malta,False,False,,,35622645000.0,https://sthotelsmalta.com/blubay-suites/,1095.0,3.7,,,False,False,False
213,0x130e4538985fd4df:0x921b535d3fbfa056,8f3f3045350550a,35.911793100000004,14.496090300000002,Venture Trading,{office_equipment_suppliercomputer_repair_servicecomputer_servicecomputer_storeembossing_servicelamination_serviceoffice_supply_storeprint_shopprinter_repair_servicerubber_stamp_store},{shoppingwholesalerservice},ChIJ39RfmDhFDhMRVqC_P11TG5I,{1 Blanche Huber StreetSliema SLM 2051Malta},Europe/Malta,False,False,,,35621336325.0,http://www.venturetrading.com/,5.0,4.2,,,True,True,True
214,0x130e4538a1f8618d:0x5bd95743128e9d4e,8f3f30453505d9e,35.91189779999999,14.495973600000001,Kwik Mart Food Store,{store},{shopping},ChIJjWH4oThFDhMRTp2OEkNX2Vs,{Blanche Huber StSliemaMalta},Europe/Malta,False,False,,,35621520685.0,,26.0,4.6,,,True,True,True
215,0x130e453955f15617:0x8d746f41d44f8c12,8f3f304535686cb,35.9122523,14.5014234,194 Triq Rodolfu,,,ChIJF1bxVTlFDhMREoxP1EFvdI0,{Tas-SliemaMalta},Europe/Malta,False,False,,,,,,,,,False,False,False
216,0x130e45b881ee0cb3:0x815bf9218665a089,8f3f30453569440,35.9124037,14.501803200000001,George's Store,{convenience_storegrocery_storeliquor_store},{groceries},ChIJswzugbhFDhMRiaBlhiH5W4E,{70 Triq Il Kbira Sliema MT SLM 154070 Triq Il - KbiraTas-SliemaMalta},Europe/Malta,False,False,,,35621332174.0,http://george-s-store.business.site/,4.0,3.3,,,True,True,True
217,0x130e45395153d081:0xec6787b8328068d4,8f3f3045356abb1,35.9121976,14.501073199999999,191 Triq Rodolfu,,,ChIJgdBTUTlFDhMR1GiAMriHZ-w,{Tas-SliemaMalta},Europe/Malta,False,False,,,,,,,,,False,False,False
218,0x130e453ea9e76921:0xc8ef369d68a69fdb,8f3f3045356d40a,35.9127864,14.5014291,Maypole Sliema,{convenience_store},{groceries},ChIJIWnnqT5FDhMR25-maJ0278g,{Triq Sir Adrian DingliSliemaMalta},Europe/Malta,False,False,,,35622581505.0,,41.0,4.5,10.0,10.0,True,True,True
219,0x130e453c01dd140b:0xbe52619a1532e5a,8f3f3045356d4dd,35.9127213,14.501465099999999,Miracle Foods Sliema,{frozen_food_storefood_products_supplier},{wholesalergroceries},ChIJCxTdATxFDhMRWi5ToRkm5Qs,{Triq Sir Adrian DingliSliemaMalta},Europe/Malta,False,False,,,35625582465.0,http://www.miraclefoods.com.mt/,72.0,4.6,15.0,15.0,True,True,True
220,0x130e4525449b1c9b:0xc30141cdbc076c0b,8f3f30453620699,35.907117,14.508347,Bonavia Offset Printers,{commercial_printergraphic_designer},{service},ChIJmxybRCVFDhMRC2wHvM1BAcM,{Tigne Seafront SLIEMASLM 3012Malta},Europe/Malta,False,False,,,35621330652.0,https://www.bonaviaprinters.com/,15.0,4.5,,,False,True,False
221,0x130e4525391b83bd:0x8e64cfd286b0304a,8f3f30453624c5c,35.907821500000004,14.507874,LABRANDA Rocca Nettuno Suites,{hotel},{tourism},ChIJvYMbOSVFDhMRSjCwhtLPZI4,{Matthew Pulis Street Sliema SLM3052Malta},Europe/Malta,True,False,,,35621344932.0,https://www.labranda.com/rocca-nettuno-suites,383.0,3.5,,,False,False,False
222,0x130e45a7fb6c4a9f:0x27e8e3c728481e0b,8f3f3045362a85a,35.9067429,14.5095693,Mediterranean Court,{lodging},{misc},ChIJn0ps-6dFDhMRCx5IKMfj6Cc,{Tigné SeafrontSliemaMalta},Europe/Malta,False,False,,,,,1.0,3.0,,,False,False,False
223,0x130e4525648b1189:0x8450119c56aa52ae,8f3f3045362ad8c,35.9066475,14.5092693,The Terrace Restaurant,{restaurant},{food},ChIJiRGLZCVFDhMRrlKqVpwRUIQ,{Tigné SeafrontSliemaMalta},Europe/Malta,True,False,,3.0,35679767838.0,http://www.terracerestaurant.mt/,551.0,4.0,,,False,False,False
224,0x130e45523fe99caf:0xc1d717cac63f41c7,8f3f3045367494a,35.907299,14.511014000000001,Guess,{clothing_store},{shopping},ChIJr5zpP1JFDhMRx0E_xsoX18E,{SliemaMalta},Europe/Malta,False,False,0x130e4525bc9b0d09:0x52eb525e76ed37dc,3.0,,https://www.guess.eu/,5.0,4.6,,,False,True,False
225,0x130e4525313284cd:0x74fab348121af42f,8f3f3045370a762,35.9080844,14.507770800000001,HB mini market Convinience shop,{convenience_store},{groceries},ChIJzYQyMSVFDhMRL_QaEkiz-nQ,{Triq Mattew PulisSliemaMalta},Europe/Malta,False,False,,,,,2.0,4.5,,,False,True,False
226,0x130e4524d863accb:0x59b5320a6f75ae7b,8f3f3045370d1b5,35.9090531,14.508136499999999,Triq Tigne',,,ChIJy6xj2CRFDhMRe651bwoytVk,{Tas-SliemaMalta},Europe/Malta,False,False,,,,,,,,,False,False,False
227,0x130e453ae07e782d:0x47a7674276c8f2cf,8f3f3045370dcec,35.909062899999995,14.508104500000002,inlingua Malta,{language_schoolenglish_language_school},{education},ChIJLXh-4DpFDhMRz_LIdkJnp0c,{92 Tigne Towers Tigne StreetSliema SLM 3172Malta},Europe/Malta,False,False,,,35620102000.0,http://www.inlinguamalta.com/,39.0,4.4,,,False,True,False
228,0x130e45485d02b6f9:0x29e69b922ee2852,8f3f3045372141e,35.9100743,14.5065517,Dolce Sicilia Sliema,{coffee_shop},{cafe},ChIJ-bYCXUhFDhMRUijuIrlpngI,{SLM3172 SLM317212 Triq Tigne'Sliema SLM 3172Malta},Europe/Malta,False,False,,,35699068907.0,https://dolce-sicilia-slima.business.site/,226.0,4.6,25.0,25.0,True,True,True
229,0x130e453b2f554637:0xe7aa860f7c3c6c91,8f3f304537236c1,35.909563,14.506549,Gaming Trading LTD,{casino},{entertainment},ChIJN0ZVLztFDhMRkWw8fA-Gquc,{Regent House Office 21 Bisazza StreetTas-Sliema SLM 1640Malta},Europe/Malta,False,False,,,35699985129.0,,1.0,5.0,,,False,False,False
230,0x130e453b40ab3b0b:0x6c58b898162dc5b9,8f3f30453725d8c,35.91067520000001,14.506136600000001,iCentre - Apple Premium Reseller,{computer_storecomputers},{shopping},ChIJCzurQDtFDhMRucUtFpi4WGw,{Tagliaferro CentreHigh StreetSliemaMalta},Europe/Malta,False,False,,,35622564430.0,http://www.icentre.com.mt/,89.0,3.7,15.0,15.0,True,True,True
231,0x130e45014da2fa03:0xf743a120b9194c06,8f3f3045372a8ea,35.9095467,14.507362099999998,SPAR Sliema,{supermarket},{groceries},ChIJA_qiTQFFDhMRBkwZuSChQ_c,{72 Triq Tigne Sliema SLMMalta},Europe/Malta,False,False,,1.0,,http://www.spar.com.mt/,345.0,4.4,15.0,15.0,True,True,True
232,0x130e453b325fde95:0xab93888cadbd0b4b,8f3f3045372e161,35.90991210000001,14.507083499999998,Tanti Opticians,{optician},{medical},ChIJld5fMjtFDhMRSwu9rYyIk6s,{Triq Tigne'SliemaMalta},Europe/Malta,False,False,,,35621335232.0,,6.0,3.7,,,False,False,False
233,0x130e4525a369b70b:0x97db04184cc49842,8f3f3045375b022,35.9075138,14.511266099999999,CIBO Pizzeria,{pizza_restaurantrestaurant},{food},ChIJC7dpoyVFDhMRQpjETBgE25c,{Pjazza TigneSliemaMalta},Europe/Malta,False,False,0x130e4525bc9b0d09:0x52eb525e76ed37dc,2.0,35679990994.0,http://cibo.com.mt/,771.0,4.3,60.0,90.0,True,True,True
234,0x130e4525c08821e7:0xfd04990cc39f6023,8f3f3045375b364,35.907548799999994,14.5115201,The Centre Office building,{corporate_office},{office},ChIJ5yGIwCVFDhMRI2CfwwyZBP0,{Pjazza Tigné Tigné Point TPO 0001Malta},Europe/Malta,False,False,,,,,4.0,4.8,,,False,False,False
235,0x130e4525bf41cc0b:0x4991ff29c2de2b0f,8f3f3045375bacb,35.907554600000005,14.511526199999999,MeDirect,{bank},{service},ChIJC8xBvyVFDhMRDyvewin_kUk,{The Centre Tigné PointTas-Sliema TPO 0001Malta},Europe/Malta,False,False,,,35625574400.0,http://www.medirect.com.mt/,12.0,4.2,,,True,True,True
236,0x130e45405cf2dafb:0xe9ee2048408a40e6,8f3f30453c16902,35.9165754,14.493914800000002,Haze Cafe & Restaurant,{caferestaurant},{foodcafe},ChIJ-9ryXEBFDhMR5kCKQEgg7uk,{George Borg Olivier StSt Julian'sMalta},Europe/Malta,False,True,,,35621389544.0,,160.0,4.0,,,False,True,False
237,0x130e4540e9b1c3c7:0x4db679c31f606cbc,8f3f30453c84aa1,35.9147579,14.493623499999998,NAAR Restobar,{restaurant},{food},ChIJx8Ox6UBFDhMRvGxgH8N5tk0,{1 Triq Censu TaboneSt Julian's STJ 1017Malta},Europe/Malta,False,False,,2.0,35621373412.0,http://naarmalta.com/,1204.0,4.3,,,True,True,True
238,0x130e457071fdfeb9:0x2c417664ababf34b,8f3f30453c8e6c3,35.913646299999996,14.494817000000001,St Julians Court Block B,{lodging},{misc},ChIJuf79cXBFDhMRS_Orq2R2QSw,{Sur Fons StreetSt Julian'sMalta},Europe/Malta,False,False,,,,,,,,,False,False,False
239,0x130e4540b99aace9:0x81cf8ddc6f23f3e8,8f3f30453c8ed02,35.913991100000004,14.494445,Crudo,{cafe},{cafe},ChIJ6ayauUBFDhMR6PMjb9yNz4E,{25 Main Street BallutaSt Julian's SLM 1802Malta},Europe/Malta,False,False,,,35699140837.0,https://www.facebook.com/pg/crudomalta/about/?ref=page_internal,313.0,4.5,25.0,60.0,True,True,True
240,0x130e4540b7047ac1:0xf4c8f155368c0be4,8f3f30453c8ed92,35.913911600000006,14.494381599999999,Balluta Pharmacy,{pharmacy},{medical},ChIJwXoEt0BFDhMR5AuMNlXxyPQ,{WF7V+HQ6St Julian'sMalta},Europe/Malta,False,False,,,35621317888.0,,10.0,2.2,,,True,True,True
241,0x130e456090292c0f:0x29ccc5b71142115,8f3f30453c8ed95,35.913928399999996,14.4943954,La Crema,{cafe},{cafe},ChIJDywpkGBFDhMRFSEUcVvMnAI,{Balluta Buildings26Main StreetSt Julian's Malta},Europe/Malta,False,False,,2.0,393931141989.0,,397.0,4.7,25.0,60.0,True,True,True
242,0x130e45473557a267:0x45a8eaa073359f3f,8f3f30453c9c2e8,35.9133482,14.494118400000001,Bank of Valletta,{bank},{service},ChIJZ6JXNUdFDhMRP581c6DqqEU,{Triq Manwel DimechSt Julian'sMalta},Europe/Malta,False,False,,,35621312020.0,,34.0,2.0,10.0,45.0,True,True,True
243,0x130e4540e6f047e7:0x27a4bd1e0ebb30e0,8f3f30453ca2b80,35.9151979,14.4932617,EF Balluta Bay Residence,{self_catering_accommodation},{tourism},ChIJ50fw5kBFDhMR4DC7Dh69pCc,{51 Censu Tabone Street Balluta baySt Julian'sMalta},Europe/Malta,False,False,,,35699281700.0,http://www.ef.com/maltaschool,48.0,4.2,,,False,False,False
244,0x130e4540e4497d2d:0xb6e339d2e9418417,8f3f30453ca2ba1,35.9152239,14.493265099999999,Bocconcino Caffe and restaurant,{restaurant},{food},ChIJLX1J5EBFDhMRF4RB6dI547Y,{Main StreetSt Julian'sMalta},Europe/Malta,False,False,,2.0,35627370670.0,,500.0,4.2,,,True,True,True
245,0x130e45409b2d9497:0xcf37397c29ff4055,8f3f30453ca8aa3,35.9152246,14.4950825,Piccolo Padre Restaurant,{restaurantitalian_restaurant},{food},ChIJl5Qtm0BFDhMRVUD_KXw5N88,{194-195 Main StreetSliemaMalta},Europe/Malta,False,False,,2.0,35621344875.0,http://www.piccolopadre.com/,1282.0,4.3,90.0,150.0,True,True,True
246,0x130e455cfecafda5:0xc64dbf11c76fae29,8f3f30453cb36c5,35.9139946,14.492716,Malta Marriott Hotel & Spa,{hotelwedding_venue},{tourism},ChIJpf3K_lxFDhMRKa5vxxG_TcY,{Triq Dun Anton Tabone Balluta Bay St. JuliansSTJ 1017Malta},Europe/Malta,False,False,,,35623110000.0,https://www.marriott.com/hotels/travel/mlamc-malta-marriott-hotel-and-spa/?scid=bb1a189a-fec3-4d19-a255-54ba596febe2&y_source=1_NjQ4ODE5Ny03MTUtbG9jYXRpb24uZ29vZ2xlX3dlYnNpdGVfb3ZlcnJpZGU%3D,876.0,4.5,,,False,False,False
247,0x130e453f16a4fe6d:0xe10f7832f15a4762,8f3f30453cc4496,35.9146333,14.497397400000002,Cara's Cafè,{cafe},{cafe},ChIJbf6kFj9FDhMRYkda8TJ4D-E,{248 Tower RoadSliemaMalta},Europe/Malta,False,True,,2.0,35621343432.0,,385.0,3.8,,,False,True,False
248,0x130e453f15119e7b:0x285a5b4b87690247,8f3f30453cc6a23,35.9145546,14.497525199999998,Plaza Hotel,{hotel},{tourism},ChIJe54RFT9FDhMRRwJph0tbWig,{248 Triq It - TorriTas-SliemaMalta},Europe/Malta,False,False,,,35621341295.0,http://www.plazahotelsmalta.com/,1240.0,3.7,,,False,False,False
249,0x130e4596aabee79f:0xa6f38efbf42368bc,8f3f30453cf0433,35.9146664,14.496262699999997,Zwiit Cravings Cafe,{cafedessert_buffetdonut_shopice_cream_shop},{foodcafe},ChIJn-e-qpZFDhMRvGgj9PuO86Y,{270 Zwiit Churros Home Tower Road SliemaSLM 1600Malta},Europe/Malta,False,False,,,35699237115.0,https://zwiitcravings.business.site/,322.0,4.2,15.0,45.0,True,True,True
250,0x130e453f1507689d:0xc89e924417a707b,8f3f30453cf16c8,35.9145732,14.497164800000002,Vecchia Napoli,{italian_restaurantpizza_delivery_servicepizza_restaurantpizzatakeaway},{food},ChIJnWgHFT9FDhMRe3B6QSTpiQw,{Tower RoadSliemaMalta},Europe/Malta,False,False,,2.0,35621343434.0,http://www.vecchianapoli.com/,1473.0,4.1,,,True,True,True
251,0x130e453e28b60ec3:0x8c21be1fe716fa0d,8f3f30453cf381a,35.9145296,14.4967178,Carlton Hotel Sliema,{hotel},{tourism},ChIJww62KD5FDhMRDfoW5x--IYw,{261 Tower RoadSliemaMalta},Europe/Malta,False,False,,,35621315765.0,http://carltonhotelmalta.com/,446.0,3.7,,,False,False,False
252,0x130e456abcb56fa5:0x4159162f2d792b86,8f3f30453d0e6ec,35.91948920000001,14.4945772,Cavalieri Art Hotel,{hotelbarlidorestaurant},{recreationfoodtourismdrinks},ChIJpW-1vGpFDhMRhit5LS8WWUE,{Spinola Road San ĠiljanSTJ 3019Malta},Europe/Malta,False,False,,,35623180000.0,https://www.cavalierihotel.com/,2019.0,3.9,,,False,False,False
253,0x130e4fd6de09dd05:0xeb23aa7527424778,8f3f30453da6c53,35.9183207,14.490527800000002,Polish Shop Malta,{grocery_storedelifood_producerfood_products_supplier},{foodgrocerieswholesaler},ChIJBd0J3tZPDhMReEdCJ3WqI-s,{3A Lapsi StreetSt Julian'sMalta},Europe/Malta,False,True,,,35679088405.0,http://www.polmalta.com/,37.0,4.8,,,False,False,False
254,0x130e454225d4b261:0x551fa553b77d19a4,8f3f30453db6cc3,35.917406,14.489363,Spinola Park,{corporate_office},{office},ChIJYbLUJUJFDhMRpBl9t1OlH1U,{Triq Mikiel Ang BorgSt Julian'sMalta},Europe/Malta,False,False,,,35627112000.0,http://www.spinolapark.com/,63.0,4.3,,,False,False,False
255,0x130e4f9b74bc8e0f:0xc327573ed2019f98,8f3f30456885481,35.9391914,14.457591399999998,Mediterraneo Marine Park,{tourist_attractionanimal_parktheme_park},{tourismrecreation},ChIJD468dJtPDhMRmJ8B0j5XJ8M,{Tul Il-Kosta Bahar ic-CaghaqNXR 9038Malta},Europe/Malta,False,False,,,35621372218.0,https://mediterraneopark.com/,2174.0,4.1,210.0,210.0,True,True,True
256,0x130e4f99110a2a09:0x508995f71142a5c9,8f3f30456d526ae,35.9372576,14.4519509,Baħar iċ-Ċagħaq,,,ChIJCSoKEZlPDhMRyaVCEfeViVA,{NaxxarMalta},Europe/Malta,False,False,,,,,,,,,False,False,False
257,0x130e5b4bbda270c5:0xd6abb6fc8422b7fa,8f3f3045a4cdc74,35.887389500000005,14.5463264,Triq il-Mulett,,,ChIJxXCivUtbDhMR-rcihPy2q9Y,{Ix-XgħajraMalta},Europe/Malta,False,False,,,,,,,,,False,False,False
258,0x130e5008d52669ef:0x69bd2dd80f0031c4,8f3f3045a5ad291,35.89108,14.539978,Malta Gaming Authority,{government_office},{public_service},ChIJ72km1QhQDhMRxDEAD9gtvWk,{Malta Gaming Authority Building SCM 02-03 Level 4 SmartCity MaltaRicasoli SCM 1001Malta},Europe/Malta,False,False,0x130e5b34c4239a9b:0x9ed95823e82f4935,,35625469000.0,http://www.mga.org.mt/,33.0,2.1,,,False,True,False
259,0x130e5b4a41e2ebd5:0x17a300f6683c7fa3,8f3f3045a794405,35.886828200000004,14.5472391,Xgħajra,,,ChIJ1eviQUpbDhMRo388aPYAoxc,{Malta},Europe/Malta,False,False,,,,,,,,,False,False,False
260,0x130e509588fdd0ad:0xbb169f3ba10ab053,8f3f304c0064c86,35.832848799999994,14.454862099999998,Qrendi,,,ChIJrdD9iJVQDhMRU7AKoTufFrs,{Malta},Europe/Malta,False,False,,,,,,,,,False,False,False
261,0x130e50b456679b8f:0x10446cbcdb40be86,8f3f304c0685129,35.819934,14.452402,Coast @ Cassarini Restaurant,{mediterranean_restaurant},{food},ChIJj5tnVrRQDhMRhr5A27xsRBA,{Triq is-SajjiedaWied iz Zurrieq il-Qrendi QRD 3043Malta},Europe/Malta,False,False,,2.0,35699207911.0,https://www.facebook.com/coastcassarini,505.0,4.6,90.0,180.0,True,True,True
262,0x130e5b6de6a24e33:0x4e224f2a3601dcec,8f3f304c1192c48,35.8308192,14.474950199999999,Zurrieq Police Station,{civil_police},{public_service},ChIJM06i5m1bDhMR7NwBNipPIk4,{Triq Santa KaterinaZurrieqMalta},Europe/Malta,False,False,,,,,1.0,5.0,,,False,False,False
263,0x130e5160c88f87af:0xf0fbb41cce24be82,8f3f304c14346d9,35.8265905,14.4708843,Nigret Self Service Grocery,{grocery_store},{groceries},ChIJr4ePyGBRDhMRgr4kzhy0-_A,{3 Triq Wied BabuZurrieqMalta},Europe/Malta,False,False,,,,,12.0,4.5,15.0,15.0,False,True,False
264,0x130e5a0986ce53e1:0x6d2e0b43064fc809,8f3f304c156162e,35.830185799999995,14.4748296,Salus Pharmacy,{pharmacy},{medical},ChIJ4VPOhglaDhMRCchPBkMLLm0,{35/36Misrah Ir-RepubblikaIż-Żurrieq ZRQ 1012Malta},Europe/Malta,False,False,,,35621680761.0,https://www.pharmacy.com.mt/zurrieq/salus-pharmacy/,5.0,4.8,15.0,15.0,True,True,True
265,0x130e5a0d16c2958d:0xcf1567d8059c1c40,8f3f304c16a3872,35.821630600000006,14.481064800000002,Zurrieq,,,ChIJjZXCFg1aDhMRQBycBdhnFc8,{Malta},Europe/Malta,False,False,,,,,,,,,False,False,False
266,0x130e5a72808b3e23:0xb70cd39b5f96da83,8f3f304c1b93d12,35.8370234,14.483391000000001,Lidl,{supermarket},{groceries},ChIJIz6LgHJaDhMRg9qWX5vTDLc,{Triq San Ġwann snc Zurrieq ZRQ02Malta},Europe/Malta,False,False,,,35680062777.0,https://www.lidl.com.mt/,1151.0,4.5,30.0,30.0,True,True,True
267,0x130e50a920b9cddf:0x2faa2e911fbf88a0,8f3f304c394c703,35.822851899999996,14.4676899,Ġnien Il-Ġibjun,{park},{recreation},ChIJ3825IKlQDhMRoIi_H5Euqi8,{Triq Il-Mitħna Tal-QaretZurrieqMalta},Europe/Malta,False,False,,,,,,,,,False,False,False
268,0x130e50e4d17a28a5:0xcc0f7f816cbbf067,8f3f304c4113008,35.8523122,14.4333098,Tracgozo,{car_rental_agency},{automobile},ChIJpSh60eRQDhMRZ_C7bIF_D8w,{Triq Patri Guzepp DeliaSiggiewiMalta},Europe/Malta,False,False,,,35621563021.0,https://www.tracgozo.com/,,,,,False,False,False
269,0x130e50f0b9547d7f:0x1226f5b76766d3f0,8f3f304c4161ba0,35.855182299999996,14.4385715,TY's Bar Siggiewi FC,{bar},{drinks},ChIJf31UufBQDhMR8NNmZ7f1JhI,{Triq San NikolaSiggiewiMalta},Europe/Malta,False,False,,1.0,35679092715.0,https://m.facebook.com/pages/Tys-bar-siggiewi/211433605534117,150.0,4.7,,,False,True,False
270,0x130e50faaefd1d75:0x2d15272505e9cdbe,8f3f304c446450d,35.8463742,14.431574599999998,Siggiewi,,,ChIJdR39rvpQDhMRvs3pBSUnFS0,{Malta},Europe/Malta,False,False,,,,,,,,,False,False,False
271,0x130e5092413c25cb:0xa9e1d7c2fde14aac,8f3f304c55a5b1a,35.8474756,14.453157999999998,Police Force Academy,{school},{education},ChIJyyU8QZJQDhMRrErh_cLX4ak,{RFW3+X7VSiggiewiMalta},Europe/Malta,False,False,,,35622943323.0,,1.0,5.0,,,False,False,False
272,0x130e5083500dfa79:0x54ccf5e0cb42dbee,8f3f304c562981d,35.8444143,14.4694186,Mqabba,,,ChIJefoNUINQDhMR7ttCy-D1zFQ,{Malta},Europe/Malta,False,False,,,,,,,,,False,False,False
273,0x130e5bcc05111073:0xac8d8d18f6d83fd9,8f3f304c800050b,35.8135989,14.524746300000002,Birżebbuġa,,,ChIJcxARBcxbDhMR2T_Y9hiNjaw,{Malta},Europe/Malta,False,False,,,,,,,,,False,False,False
274,0x130e5bcf35e6221b:0xf3099cbb7b82a970,8f3f304c8869295,35.8232675,14.528533900000001,Reno's Guesthouse,{guest_house},{misc},ChIJGyLmNc9bDhMRcKmCe7ucCfM,{2 Triq San FilippuBirżebbuġa BBG 0001Malta},Europe/Malta,False,False,,,35699335303.0,https://renos-restaurant-guesthouse.business.site/,65.0,4.2,,,False,False,False
275,0x130e5a6ade4618ad:0xc06ed431ec5c3ce,8f3f304ccdb6d64,35.83622020000001,14.492712,Ħal Safi,,,ChIJrRhG3mpaDhMRzsPFHkPtBgw,{Malta},Europe/Malta,False,False,,,,,,,,,False,False,False
276,0x130e5bb802e9fd1b:0xc68e9ad9cbfff1d5,8f3f304cd423b55,35.829469,14.530687599999998,Birzebbuga Local Council,{council},{administration},ChIJG_3pArhbDhMR1fH_y9majsY,{Dar BirzebbugaDawret il-Qalb MqaddsaBirżebbuġaMalta},Europe/Malta,False,False,,,35621650165.0,http://www.birzebbugalc.com/,12.0,2.7,,,False,True,False
277,0x130e5bb7ef5b732f:0xc2664983d3c6a374,8f3f304cd42679d,35.829479,14.529570000000001,Xtreme Fishing Shop,{fishing_store},{shopping},ChIJL3Nb77dbDhMRdKPG04NJZsI,{San GorgB'Bugia BBG 1023Malta},Europe/Malta,False,False,,,35621651043.0,http://www.xtremefishingmalta.com/,78.0,4.7,20.0,20.0,True,True,True
278,0x130e5bc8253833b1:0x6f5f0ea8497cd811,8f3f304cd432d24,35.8285339,14.528488500000002,Inspire Charity Shop Birzebbuga,{clothing_store},{shopping},ChIJsTM4JchbDhMREdh8SagOX28,{Triq Zarenu DalliBirżebbuġaMalta},Europe/Malta,False,False,,,,,1.0,4.0,,,False,False,False
279,0x130e5bc8d2116de7:0x84636b11b5e51bb,8f3f304cd49e722,35.824112400000004,14.528326999999999,Britannia Pharmacy,{pharmaceutical_company},{medical},ChIJ520R0shbDhMRu1FeG7E2Rgg,{Triq il-Bajja s-SabiħaBirżebbuġaMalta},Europe/Malta,False,False,,,35621658622.0,https://www.pharmacy.com.mt/birzebbuga/britannia-pharmacy/,7.0,3.7,,,False,True,False
280,0x130e5bc9c915b5df:0xce3036941905697e,8f3f304cd581af3,35.828388000000004,14.527166000000001,Kina Bakery & Pizzeria,{pizza_restaurant},{food},ChIJ37UVyclbDhMRfmkFGZQ2MM4,{TriqSan GuzeppBirżebbuġaMalta},Europe/Malta,False,False,,,35679777795.0,,14.0,4.1,,,True,True,True
281,0x130e5b98fd345c79:0xbc8f292d56c056be,8f3f304cda30cc0,35.841112,14.544960000000001,Costa Coffee - Marsaxlokk,{coffee_shop},{cafe},ChIJeVw0_ZhbDhMRvlbAVi0pj7w,{Triq iz-ZejtunMarsaxlokkMalta},Europe/Malta,False,False,,2.0,35621653760.0,http://www.costamalta.com/,524.0,3.9,30.0,90.0,True,True,True
282,0x130e5b991ec984f7:0x45b7571eadc07ebe,8f3f304cda35736,35.841428,14.545364000000001,Tartarun Restaurant,{seafood_restaurant},{food},ChIJ94TJHplbDhMRvn7ArR5Xt0U,{20 Xatt is-SajjiedaMarsaxlokkMalta},Europe/Malta,False,False,,3.0,35621658089.0,http://www.tartarun.com/,705.0,4.6,120.0,180.0,True,True,True
283,0x130e5b98421c48a1:0x969e1ed7778ab19,8f3f304cdb8a60e,35.8396301,14.543760500000001,Police Station,{police},{public_service},ChIJoUgcQphbDhMRGat4d-3haQk,{Triq San Piju VMarsaxlokkMalta},Europe/Malta,False,False,,,35622943817.0,,,,,,False,False,False
284,0x130e5b9844e0c169:0x64943ef69ddeb7bb,8f3f304cdb8b112,35.839867600000005,14.544210999999999,La Nostra Padrona Restaurant,{seafood_restaurant},{food},ChIJacHgRJhbDhMRu7fenfY-lGQ,{87Xatt is-SajjiedaMarsaxlokkMalta},Europe/Malta,False,False,,2.0,35627667720.0,https://www.facebook.com/La-Nostra-Padrona-349016441910136,1093.0,4.3,90.0,180.0,True,True,True
285,0x130e5b9843f7d48d:0xc8c8f7c8bceaca3a,8f3f304cdb8b428,35.8397254,14.544143599999998,Pisces Restaurant Marsaxlokk,{restaurant},{food},ChIJjdT3Q5hbDhMROsrqvMj3yMg,{89 Xatt is SajjiedaMarsaxlokk MXK 1304Malta},Europe/Malta,False,False,,2.0,35621654956.0,http://www.piscesrestaurantmalta.com/,473.0,3.7,,,True,True,True
286,0x130e5b983fd5ae49:0x9f6b4f96d93d643a,8f3f304cdb8b48d,35.839646200000004,14.544116800000001,Southport Villa & Garden`s,{mediterranean_restaurant},{food},ChIJSa7VP5hbDhMROmQ92ZZPa58,{Triq is-SajjiedaMarsaxlokk MXK 1304Malta},Europe/Malta,False,True,,,35627012600.0,,38.0,4.2,,,False,True,False
287,0x130e5ba2a7f7e2b1:0x8c8387d6ba6329d1,8f3f304cdb9ac1b,35.838953100000005,14.5423479,Harbour Lodge,{lodge},{misc},ChIJseL3p6JbDhMR0SljutaHg4w,{38 Harbour Lodge St. Piju Street Marsaxlokk MT MXK 1472MarsaxlokkMalta},Europe/Malta,False,False,,,35699821491.0,http://www.harbourlodgemalta.com/,138.0,3.8,,,False,False,False
288,0x130e503ab11d88db:0x15f2c15ff9ab8f42,8f3f304e0060820,35.893055600000004,14.438333300000002,M4 Shopping Complex,{supermarket},{groceries},ChIJ24gdsTpQDhMRQo-r-V_B8hU,{VCVQ+68GAttardMalta},Europe/Malta,False,False,,,35621423029.0,,247.0,4.1,15.0,15.0,True,True,True
289,0x130e503ab0d26417:0x620f40fb4f20b8b9,8f3f304e0060b62,35.893062799999996,14.4385742,Spells - Toys Stationery & Partyware,{toy_storegift_shopparty_storestationery_store},{shopping},ChIJF2TSsDpQDhMRubggT_tAD2I,{M4 Shopping Complex Triq il-Linja Attard ATD1234Malta},Europe/Malta,False,False,,,35621421172.0,,88.0,4.4,20.0,20.0,True,True,True
290,0x130e503aaffb2f0f:0x2919dbdade8045c0,8f3f304e0060d34,35.8929861,14.4380917,M4 Pharmacy,{pharmacy},{medical},ChIJDy_7rzpQDhMRwEWA3trbGSk,{VCVQ+56WAttardMalta},Europe/Malta,False,False,,,35621436531.0,,1.0,5.0,,,False,True,False
291,0x130e503ad6ca9195:0x7be4caf120d22d3f,8f3f304e006dd49,35.8930388,14.4400256,Santa Lucia Cafe,{cafe},{cafe},ChIJlZHK1jpQDhMRPy3SIPHK5Hs,{Triq Il-LinjaAttardMalta},Europe/Malta,False,False,,2.0,35621417894.0,http://www.cafesantalucia.com/,947.0,4.3,15.0,45.0,True,True,True
292,0x130e5155da42e313:0x8c585ceaad3432da,8f3f304e006ec12,35.8925059,14.439055300000001,Sam Snack Bar,{cafe},{cafe},ChIJE-NC2lVRDhMR2jI0repcWIw,{103 Triq Il-MostaAttardMalta},Europe/Malta,False,False,,,35679833477.0,https://m.facebook.com/samsnackbar/,8.0,5.0,,,False,True,False
293,0x130e5031fa7ed2f5:0x9bb6ba4136a4b38b,8f3f304e01027a1,35.893692,14.432098300000002,Cassia Ironmongery Ltd,{hardware_store},{wholesaler},ChIJ9dJ--jFQDhMRi7OkNkG6tps,{VCVJ+FRHAttardMalta},Europe/Malta,False,False,,,35621434720.0,,118.0,4.5,10.0,10.0,True,True,True
294,0x130e514b8a8edb55:0xd6229bec5a221b6b,8f3f304e01086e2,35.893700200000005,14.4339782,El Panadero Bakery and Convenience Store,{convenience_store},{groceries},ChIJVduOiktRDhMRaxsiWuybItY,{62 Triq Il-PitkaliAttardMalta},Europe/Malta,False,False,,,35627424386.0,https://www.facebook.com/PANADERO307/,9.0,2.9,10.0,10.0,True,True,True
295,0x130e5031da68c6a1:0x37db3da17d7da65f,8f3f304e010a959,35.8937085,14.4336315,Conimex,{home_goods_store},{wholesaler},ChIJocZo2jFQDhMRX6Z9faE92zc,{VCVM+FFJAttardMalta},Europe/Malta,False,False,,,35627415656.0,https://www.facebook.com/Conimex-673858069418493/,113.0,4.0,15.0,15.0,True,True,True
296,0x130e5031da8a9ceb:0x63cd344e9188f2e5,8f3f304e010ab6d,35.89370170000001,14.4338509,Exquisito,{restaurant},{food},ChIJ65yK2jFQDhMR5fKIkU40zWM,{Triq Il-PitkaliAttardMalta},Europe/Malta,False,False,,1.0,35621417678.0,,44.0,4.5,,,False,True,False
297,0x130e513818772271:0x11aae597f5b169ec,8f3f304e010e614,35.893707899999995,14.4333321,azzopardi fish shop,{fish_store},{shopping},ChIJcSJ3GDhRDhMR7Gmx9ZflqhE,{72 Triq Il-PitkaliAttardMalta},Europe/Malta,False,False,,,,,,,,,False,True,False
298,0x130e5031dcc026bd:0x26cbdcc06148665c,8f3f304e010e78b,35.893702000000005,14.4333135,Sports Experience,{trophy_shop},{shopping},ChIJvSbA3DFQDhMRXGZIYcDcyyY,{74 Triq Il-PitkaliAttard ATD 2214Malta},Europe/Malta,False,False,,,35621438877.0,https://www.facebook.com/SportsExperienceMT/,4.0,5.0,,,False,True,False
299,0x130e503210ef4489:0xef18c797e086b0e7,8f3f304e01144b5,35.893623,14.430714000000002,Phoenix Chinese Restaurant & Take Away,{restaurant},{food},ChIJiUTvEDJQDhMR57CG4JfHGO8,{Triq Il-PitkaliAttardMalta},Europe/Malta,False,False,,,35679888858.0,,41.0,3.8,15.0,15.0,False,True,False
300,0x130e5106f263f32d:0x7e514bd228dbeff8,8f3f304e011462c,35.893648600000006,14.4310087,Ta' Dernis Snack Bar & Take Away,{restaurant},{food},ChIJLfNj8gZRDhMR-O_bKNJLUX4,{Triq Il-PitkaliAttardMalta},Europe/Malta,False,False,,,35679704582.0,https://www.facebook.com/www.tadernissnackbar.com.mt/,32.0,4.3,10.0,45.0,True,True,True
301,0x130e5031e5564785:0x616f620b821daee1,8f3f304e01152f1,35.89372,14.4317742,Coldwell Banker Malta,{real_estate_agency},{service},ChIJhUdW5TFQDhMR4a4dggtib2E,{Real Estate Services Triq Il-Pitkali AttardATD 2214Malta},Europe/Malta,False,False,,,35623392299.0,https://coldwellbanker.mt/,10.0,4.7,,,False,True,False
302,0x130e512e95d01f01:0x62c8a925c81cba90,8f3f304e01156d6,35.8935685,14.431591599999999,crayons Stationery,{stationery_store},{shopping},ChIJAR_QlS5RDhMRkLocyCWpyGI,{Triq Il-PitkaliAttardMalta},Europe/Malta,False,False,,,35679414114.0,,46.0,4.8,15.0,15.0,True,True,True
303,0x130e51bf1d8a8c25:0xb4e050deddca0a5b,8f3f304e011d92d,35.89372589999999,14.432969,Tenderfresh Butcher,{butcher_shop},{groceries},ChIJJYyKHb9RDhMRWwrK3d5Q4LQ,{Triq Il-PitkaliAttardMalta},Europe/Malta,False,False,,,35621419757.0,,,,,,False,True,False
304,0x130e5031dd7b66ef:0x478fe4c1088bcd5f,8f3f304e011d94b,35.8936936,14.4330546,Misrah Kola Pharmacy,{pharmacy},{medical},ChIJ72Z73TFQDhMRX82LCMHkj0c,{Triq Il-PitkaliAttardMalta},Europe/Malta,False,False,,,35621434137.0,https://www.pharmacy.com.mt/attard/misrah-kola-pharmacy/,5.0,5.0,15.0,15.0,True,True,True
305,0x130e502ffb3b126f:0xba8c31fb5b14a2dd,8f3f304e01439ae,35.894231,14.436729999999999,APS Bank Attard,{bankatm},{service},ChIJbxI7-y9QDhMR3aIUW_sxjLo,{Triq Santa KatarinaAttardMalta},Europe/Malta,False,False,,,35621226644.0,https://www.apsbank.com.mt/,9.0,2.4,15.0,15.0,True,True,True
306,0x130e50302c1097e7:0x3e49ec087a01b625,8f3f304e0156121,35.8936277,14.434764499999998,AtoZ Electronics,{electronics_storeappliance_store},{shopping},ChIJ55cQLDBQDhMRJbYBegjsST4,{70 Triq Il-PitkaliAttard ATD 2382Malta},Europe/Malta,False,False,,,35627319555.0,https://www.atoz.com.mt/,205.0,4.3,15.0,15.0,True,True,True
307,0x130e5186b16a4071:0xe5b2593489a3c30d,8f3f304e030378d,35.8912166,14.443192300000002,Central Butcher,{butcher_shop},{groceries},ChIJcUBqsYZRDhMRDcOjiTRZsuU,{2 Triq Sant AnnaAttardMalta},Europe/Malta,False,False,,,35621435162.0,,,,,,False,True,False
308,0x130e503b7e06a499:0x9214a30de2edd508,8f3f304e031812e,35.890636900000004,14.443191,Attard Parish Centre,{religious_institution},{religious_building},ChIJmaQGfjtQDhMRCNXt4g2jFJI,{VCRV+774AttardMalta},Europe/Malta,False,False,,,,,1.0,4.0,,,False,False,False
309,0x130e503c837b5a0b:0xd6adb34f2475118f,8f3f304e031d600,35.8908165,14.4435573,Jalie's Coffee Cakes and Bakes,{cafe},{cafe},ChIJC1p7gzxQDhMRjxF1JE-zrdY,{AttardMalta},Europe/Malta,False,False,,2.0,35621434590.0,http://www.facebook.com/JaliesAttard/,855.0,4.4,,,True,True,True
310,0x130e5162b5cb6161:0xcee076f5c2326f62,8f3f304e033071c,35.89201679999999,14.4413861,Plan C Restobar,{restaurant},{food},ChIJYWHLtWJRDhMRYm8ywvV24M4,{4 Plan-CTriq Ant. SchembriAttardMalta},Europe/Malta,False,False,,,35621438749.0,,54.0,4.7,,,True,True,True
311,0x130e45573174f0c5:0x871180d1b2a9e4f2,8f3f304e0332833,35.891896100000004,14.4410285,PCC,{certified_public_accountanttax_consultant},{service},ChIJxfB0MVdFDhMR8uSpstGAEYc,{34 PCC HouseTriq il-MostaĦ'Attard ATD 1434Malta},Europe/Malta,False,False,,,35621376275.0,http://pccadvisors.com/,3.0,3.0,,,True,True,True
312,0x130e503b166ce3e1:0x93aee4d9ba3f40ef,8f3f304e0332acc,35.8917924,14.441340599999998,Brown's St Mary Pharmacy,{pharmacylaser_hair_removal_service},{medical},ChIJ4eNsFjtQDhMR70A_utnkrpM,{Triq Ant. SchembriAttardMalta},Europe/Malta,False,False,,,35621436339.0,https://www.facebook.com/BrownsPharma,28.0,4.5,15.0,15.0,True,True,True
313,0x130e503b15206463:0x4441db5cb8266bba,8f3f304e0333088,35.891677200000004,14.4416812,BOV ATM,{atm},{service},ChIJY2QgFTtQDhMRumsmuFzbQUQ,{Triq Ir-RandAttardMalta},Europe/Malta,False,False,,,35621312020.0,,6.0,2.8,,,True,True,True
314,0x130e503bb605e6ad:0x11f60b4d5811d999,8f3f304e0384b80,35.889331,14.440695000000002,Wood and Coal steak house,{steak_housebargluten_free_restaurantrestaurant},{fooddrinks},ChIJreYFtjtQDhMRmdkRWE0L9hE,{Triq iż-ŻgħafranĦ'Attard ATD 9015Malta},Europe/Malta,False,False,,2.0,35679570073.0,https://woodandcoal.com.mt/,771.0,4.1,,,True,True,True
315,0x130e51ca8e222a8d:0xbb23bbdd89b35ba6,8f3f304e05abd92,35.885626200000004,14.4235473,Knisja Madonna tal-Vitorja,{church},{religious_building},ChIJjSoijspRDhMRpluzid27I7s,{VCPF+7C3AttardMalta},Europe/Malta,False,False,,,,,3.0,4.7,,,False,False,False
316,0x130e5029a57d12f3:0xf11cedd1c10104d3,8f3f304e094271c,35.902507799999995,14.433831,Triq Il-Waqqafa,,,ChIJ8xJ9pSlQDhMR0wQBwdHtHPE,{MostaMalta},Europe/Malta,False,False,,,,,,,,,False,False,False
317,0x130e51599cf040d7:0x35044007bca7ecf5,8f3f304e0a2b2de,35.8979516,14.444345499999999,St Joseph Pharmacy Lija,{organic_drug_store},{shopping},ChIJ10DwnFlRDhMR9eynvAdABDU,{164 Triq Annibale PrecaLijaMalta},Europe/Malta,False,False,,,35621414051.0,https://www.pharmacy.com.mt/lija/st-joseph-pharmacy/,7.0,2.9,15.0,15.0,True,True,True
318,0x130e50221d5aaadd:0x2af771042479ccc6,8f3f304e0a48940,35.897662700000005,14.4482666,Casa Antonia Nursing & Residential Home,{assisted_living_facility},{apartment},ChIJ3apaHSJQDhMRxsx5JARx9yo,{Trejqa Tal-Papa AlessandruBalzanMalta},Europe/Malta,False,False,,,35621470677.0,https://casaantoniamalta.com/,16.0,4.1,,,False,False,False
319,0x130e5023c9f8fc83:0xdf60a0de7ea38db6,8f3f304e0a5068e,35.89665,14.445653,The President's Kitchen Garden,{cafe},{cafe},ChIJg_z4ySNQDhMRto2jft6gYN8,{St Anthony StAttardMalta},Europe/Malta,False,False,,1.0,35621226226.0,https://www.facebook.com/The-Presidents-Kitchen-Garden-309394759171809/timeline/,580.0,4.3,60.0,150.0,True,True,True
320,0x130e50224b0d37f3:0x55db566e57f91fae,8f3f304e0a5e502,35.896443100000006,14.446310800000001,San Anton Palace,{historical_landmarktourist_attraction},{tourismart_culture},ChIJ8zcNSyJQDhMRrh_5V25W21U,{24 G.PortelliAttardMalta},Europe/Malta,False,False,,,,,680.0,4.5,45.0,45.0,True,True,True
321,0x130e5024e2754cfd:0x54d4dd6035665002,8f3f304e0a84163,35.895094,14.440405499999999,Dr. Trevor's Veterinary Clinic,{veterinarian},{medical},ChIJ_Ux14iRQDhMRAlBmNWDd1FQ,{48 Triq KananeaAttardMalta},Europe/Malta,False,False,,,35621423100.0,,700.0,4.7,15.0,60.0,True,True,True
322,0x130e519023ff1963:0x8bce28ea65d9c34c,8f3f304e0a8488b,35.8951184,14.4403145,Pampered pets malta,{pet_groomer},{service},ChIJYxn_I5BRDhMRTMPZZeoozos,{Triq KananeaAttardMalta},Europe/Malta,False,False,,,35627863824.0,,8.0,4.9,,,True,True,True
323,0x130e503ace8646a3:0x2a3c33769819b7d8,8f3f304e0a93555,35.8932607,14.4397108,Excel Homes Real Estate Ltd (Malta),{real_estate_agencyreal_estatereal_estate_agentsreal_estate_appraiserreal_estate_consultantreal_estate_rentalreal_estate_rental_agency},{apartmentservice},ChIJo0aGzjpQDhMR2LcZmHYzPCo,{Triq Il-Linja Ħ'AttardATD 1235Malta},Europe/Malta,False,False,,,35699451255.0,https://www.excel.com.mt/,53.0,5.0,,,False,True,False
324,0x130e51f46cb3fab3:0xc0aa52fc1e9cb3f,8f3f304e0aa5a02,35.896390600000004,14.440776300000001,CarePlus Medics,{medical_office},{medical},ChIJs_qzbPRRDhMRP8vpwS-lCgw,{Triq KananeaAttardMalta},Europe/Malta,False,False,,,35679424424.0,,,,20.0,60.0,True,True,True
325,0x130e50335702be51:0x9663864c6eb34a6c,8f3f304e0ac42ca,35.8950655,14.444792000000001,Farmer's Deli,{organic_food_storedry_fruit_storefruit_and_vegetable_storehealth_food_storeorganic_storerestaurant},{foodgroceries},ChIJUb4CVzNQDhMRbEqzbkyGY5Y,{Villa Bologna 30 Sant’Anton StreetĦ'AttardMalta},Europe/Malta,False,False,0x130e50236ff7bc15:0x86bb3104ace9fe10,,35699372514.0,http://www.farmersdelimalta.com/,62.0,4.5,,,True,True,True
